{
"type": "FeatureCollection",
"name": "all_candidates",
"crs": { "type": "name", "properties": { "name": "urn:ogc:def:crs:OGC:1.3:CRS84" } },
"features": [
{ "type": "Feature", "properties": { "address": "1/618-620 Sydney Road, Coburg, Vic 3058", "processed_at": "2025-09-18T19:25:11.467", "ptv_walkability_colour": "#A67C00", "ptv_walkable_5min": true, "ptv_walkable_15min": true, "feature_type": "property" }, "geometry": { "type": "Point", "coordinates": [ 144.966455599999989, -37.7360538 ] } },
{ "type": "Feature", "properties": { "address": "2B Tassell Street, Hadfield, Vic 3046", "processed_at": "2025-09-18T19:25:14.160", "ptv_walkability_colour": "#800000", "ptv_walkable_5min": false, "ptv_walkable_15min": false, "feature_type": "property" }, "geometry": { "type": "Point", "coordinates": [ 144.9384253, -37.7136421 ] } },
{ "type": "Feature", "properties": { "address": "2A Kalang Rd, Glenroy, Vic 3046", "processed_at": "2025-09-18T19:25:15.536", "ptv_walkability_colour": "#00C864", "ptv_walkable_5min": false, "ptv_walkable_15min": true, "feature_type": "property" }, "geometry": { "type": "Point", "coordinates": [ 144.9220608, -37.7100322 ] } },
{ "type": "Feature", "properties": { "address": "53 Waterford Avenue, Maribyrnong, Vic 3032", "processed_at": "2025-09-18T19:32:05.040", "ptv_walkability_colour": "#A67C00", "ptv_walkable_5min": true, "ptv_walkable_15min": true, "feature_type": "property" }, "geometry": { "type": "Point", "coordinates": [ 144.8795149, -37.7724746 ] } },
{ "type": "Feature", "properties": { "address": "1/57 Jensen Road, Preston, Vic 3072", "processed_at": "2025-09-18T19:25:20.296", "ptv_walkability_colour": "#00C864", "ptv_walkable_5min": false, "ptv_walkable_15min": true, "feature_type": "property" }, "geometry": { "type": "Point", "coordinates": [ 145.0242036, -37.738007 ] } },
{ "type": "Feature", "properties": { "address": "3/42-44 Crevelli Street, Reservoir, Vic 3073", "processed_at": "2025-09-18T19:25:22.766", "ptv_walkability_colour": "#00C864", "ptv_walkable_5min": false, "ptv_walkable_15min": true, "feature_type": "property" }, "geometry": { "type": "Point", "coordinates": [ 145.0302998, -37.7291789 ] } },
{ "type": "Feature", "properties": { "address": "11a Lloyd Avenue, Reservoir, Vic 3073", "processed_at": "2025-09-18T19:32:07.171", "ptv_walkability_colour": "#00C864", "ptv_walkable_5min": false, "ptv_walkable_15min": true, "feature_type": "property" }, "geometry": { "type": "Point", "coordinates": [ 145.016710499999988, -37.6983144 ] } },
{ "type": "Feature", "properties": { "address": "80 Kynoch Lane, Maribyrnong, Vic 3032", "processed_at": "2025-09-18T19:32:10.100", "ptv_walkability_colour": "#A67C00", "ptv_walkable_5min": true, "ptv_walkable_15min": true, "feature_type": "property" }, "geometry": { "type": "Point", "coordinates": [ 144.880206500000014, -37.772538399999988 ] } },
{ "type": "Feature", "properties": { "address": "1A Progress Street, Strathmore, Vic 3041", "processed_at": "2025-09-18T19:25:28.398", "ptv_walkability_colour": "#00C864", "ptv_walkable_5min": false, "ptv_walkable_15min": true, "feature_type": "property" }, "geometry": { "type": "Point", "coordinates": [ 144.9276121, -37.7394706 ] } }
]
}
