{
"type": "FeatureCollection",
"name": "all_candidates",
"crs": { "type": "name", "properties": { "name": "urn:ogc:def:crs:OGC:1.3:CRS84" } },
"features": [
{ "type": "Feature", "properties": { "address": "1/618-620 Sydney Road, Coburg, Vic 3058", "processed_at": "2025-09-21T21:39:04.911", "ptv_walkability_colour": "#A67C00", "ptv_walkable_5min": true, "ptv_walkable_15min": true, "feature_type": "property" }, "geometry": { "type": "Point", "coordinates": [ 144.966455599999989, -37.7360538 ] } },
{ "type": "Feature", "properties": { "address": "2B Tassell Street, Hadfield, Vic 3046", "processed_at": "2025-09-21T21:39:07.153", "ptv_walkability_colour": "#800000", "ptv_walkable_5min": false, "ptv_walkable_15min": false, "feature_type": "property" }, "geometry": { "type": "Point", "coordinates": [ 144.9384253, -37.7136421 ] } },
{ "type": "Feature", "properties": { "address": "1/57 Jensen Road, Preston, Vic 3072", "processed_at": "2025-09-21T21:39:08.897", "ptv_walkability_colour": "#00C864", "ptv_walkable_5min": false, "ptv_walkable_15min": true, "feature_type": "property" }, "geometry": { "type": "Point", "coordinates": [ 145.0242036, -37.738007 ] } },
{ "type": "Feature", "properties": { "address": "3/42-44 Crevelli Street, Reservoir, Vic 3073", "processed_at": "2025-09-21T21:39:10.627", "ptv_walkability_colour": "#00C864", "ptv_walkable_5min": false, "ptv_walkable_15min": true, "feature_type": "property" }, "geometry": { "type": "Point", "coordinates": [ 145.0302998, -37.7291789 ] } },
{ "type": "Feature", "properties": { "address": "1A Progress Street, Strathmore, Vic 3041", "processed_at": "2025-09-21T21:39:12.258", "ptv_walkability_colour": "#00C864", "ptv_walkable_5min": false, "ptv_walkable_15min": true, "feature_type": "property" }, "geometry": { "type": "Point", "coordinates": [ 144.9276121, -37.7394706 ] } },
{ "type": "Feature", "properties": { "address": "38 David Crescent, Bundoora, Vic 3083", "processed_at": "2025-09-21T21:39:14.591", "ptv_walkability_colour": "#00C864", "ptv_walkable_5min": false, "ptv_walkable_15min": true, "feature_type": "property" }, "geometry": { "type": "Point", "coordinates": [ 145.0695213, -37.6945311 ] } },
{ "type": "Feature", "properties": { "address": "38 Hubert Ave, Glenroy, Vic 3046", "processed_at": "2025-09-21T21:39:16.722", "ptv_walkability_colour": "#800000", "ptv_walkable_5min": false, "ptv_walkable_15min": false, "feature_type": "property" }, "geometry": { "type": "Point", "coordinates": [ 144.9332665, -37.7027623 ] } },
{ "type": "Feature", "properties": { "address": "53 Waterford Avenue, Maribyrnong, Vic 3032", "processed_at": "2025-09-21T21:39:18.653", "ptv_walkability_colour": "#A67C00", "ptv_walkable_5min": true, "ptv_walkable_15min": true, "feature_type": "property" }, "geometry": { "type": "Point", "coordinates": [ 144.8795149, -37.7724746 ] } },
{ "type": "Feature", "properties": { "address": "2A Kalang Rd, Glenroy, Vic 3046", "processed_at": "2025-09-21T21:39:20.385", "ptv_walkability_colour": "#00C864", "ptv_walkable_5min": false, "ptv_walkable_15min": true, "feature_type": "property" }, "geometry": { "type": "Point", "coordinates": [ 144.9220608, -37.7100322 ] } },
{ "type": "Feature", "properties": { "address": "20 Browning Street, Kingsbury, Vic 3083", "processed_at": "2025-09-21T21:39:22.317", "ptv_walkability_colour": "#A67C00", "ptv_walkable_5min": true, "ptv_walkable_15min": true, "feature_type": "property" }, "geometry": { "type": "Point", "coordinates": [ 145.035157, -37.7187741 ] } }
]
}
