{
"type": "FeatureCollection",
"name": "stops_with_commute_times_metro_train",
"features": [
{ "type": "Feature", "properties": { "STOP_NAME": "Aircraft Railway Station", "STOP_ID": "vic:rail:ACF", "MODE": "METRO TRAIN", "transit_time_minutes": 27.7, "transit_distance_km": 22.44, "transit_time_minutes_nearest_tier": 30.0 }, "geometry": { "type": "Point", "coordinates": [ 144.76080944, -37.86660595 ] } },
{ "type": "Feature", "properties": { "STOP_NAME": "Aircraft Station", "STOP_ID": "13738", "MODE": "METRO TRAIN", "transit_time_minutes": 27.1, "transit_distance_km": 22.39, "transit_time_minutes_nearest_tier": 25.0 }, "geometry": { "type": "Point", "coordinates": [ 144.76028358, -37.86670408 ] } },
{ "type": "Feature", "properties": { "STOP_NAME": "Alamein Railway Station", "STOP_ID": "vic:rail:ALM", "MODE": "METRO TRAIN", "transit_time_minutes": 33.4, "transit_distance_km": 17.83, "transit_time_minutes_nearest_tier": 35.0 }, "geometry": { "type": "Point", "coordinates": [ 145.07965567, -37.86832039 ] } },
{ "type": "Feature", "properties": { "STOP_NAME": "Alamein Station", "STOP_ID": "11197", "MODE": "METRO TRAIN", "transit_time_minutes": 33.4, "transit_distance_km": 17.83, "transit_time_minutes_nearest_tier": 35.0 }, "geometry": { "type": "Point", "coordinates": [ 145.079726889999989, -37.8682044 ] } },
{ "type": "Feature", "properties": { "STOP_NAME": "Albion Railway Station", "STOP_ID": "vic:rail:ALB", "MODE": "METRO TRAIN", "transit_time_minutes": 47.9, "transit_distance_km": 15.1, "transit_time_minutes_nearest_tier": 50.0 }, "geometry": { "type": "Point", "coordinates": [ 144.82470361, -37.77765281 ] } },
{ "type": "Feature", "properties": { "STOP_NAME": "Albion Station", "STOP_ID": "15364", "MODE": "METRO TRAIN", "transit_time_minutes": 45.0, "transit_distance_km": 14.98, "transit_time_minutes_nearest_tier": 45.0 }, "geometry": { "type": "Point", "coordinates": [ 144.82460703000001, -37.77746178 ] } },
{ "type": "Feature", "properties": { "STOP_NAME": "Alphington Railway Station", "STOP_ID": "vic:rail:ALP", "MODE": "METRO TRAIN", "transit_time_minutes": 26.4, "transit_distance_km": 11.0, "transit_time_minutes_nearest_tier": 25.0 }, "geometry": { "type": "Point", "coordinates": [ 145.031254929999989, -37.77839363 ] } },
{ "type": "Feature", "properties": { "STOP_NAME": "Alphington Station", "STOP_ID": "13750", "MODE": "METRO TRAIN", "transit_time_minutes": 26.4, "transit_distance_km": 11.0, "transit_time_minutes_nearest_tier": 25.0 }, "geometry": { "type": "Point", "coordinates": [ 145.03128755, -37.77844825 ] } },
{ "type": "Feature", "properties": { "STOP_NAME": "Altona Railway Station", "STOP_ID": "vic:rail:ALT", "MODE": "METRO TRAIN", "transit_time_minutes": 30.1, "transit_distance_km": 17.37, "transit_time_minutes_nearest_tier": 30.0 }, "geometry": { "type": "Point", "coordinates": [ 144.82964474, -37.8671476 ] } },
{ "type": "Feature", "properties": { "STOP_NAME": "Altona Station", "STOP_ID": "13742", "MODE": "METRO TRAIN", "transit_time_minutes": 30.1, "transit_distance_km": 17.37, "transit_time_minutes_nearest_tier": 30.0 }, "geometry": { "type": "Point", "coordinates": [ 144.82943997000001, -37.86715283 ] } },
{ "type": "Feature", "properties": { "STOP_NAME": "Anstey Railway Station", "STOP_ID": "vic:rail:ASY", "MODE": "METRO TRAIN", "transit_time_minutes": 29.2, "transit_distance_km": 12.78, "transit_time_minutes_nearest_tier": 30.0 }, "geometry": { "type": "Point", "coordinates": [ 144.96068404, -37.76124203 ] } },
{ "type": "Feature", "properties": { "STOP_NAME": "Anstey Station", "STOP_ID": "14312", "MODE": "METRO TRAIN", "transit_time_minutes": 29.2, "transit_distance_km": 12.78, "transit_time_minutes_nearest_tier": 30.0 }, "geometry": { "type": "Point", "coordinates": [ 144.96073879, -37.76131507 ] } },
{ "type": "Feature", "properties": { "STOP_NAME": "Armadale Railway Station", "STOP_ID": "vic:rail:ARM", "MODE": "METRO TRAIN", "transit_time_minutes": 21.2, "transit_distance_km": 9.21, "transit_time_minutes_nearest_tier": 20.0 }, "geometry": { "type": "Point", "coordinates": [ 145.019325540000011, -37.85645238 ] } },
{ "type": "Feature", "properties": { "STOP_NAME": "Armadale Station", "STOP_ID": "14259", "MODE": "METRO TRAIN", "transit_time_minutes": 21.1, "transit_distance_km": 9.19, "transit_time_minutes_nearest_tier": 20.0 }, "geometry": { "type": "Point", "coordinates": [ 145.01897865, -37.85624829 ] } },
{ "type": "Feature", "properties": { "STOP_NAME": "Ascot Vale Railway Station", "STOP_ID": "vic:rail:ASV", "MODE": "METRO TRAIN", "transit_time_minutes": 18.1, "transit_distance_km": 6.07, "transit_time_minutes_nearest_tier": 20.0 }, "geometry": { "type": "Point", "coordinates": [ 144.921820739999987, -37.77530609 ] } },
{ "type": "Feature", "properties": { "STOP_NAME": "Ascot Vale Station", "STOP_ID": "15548", "MODE": "METRO TRAIN", "transit_time_minutes": 18.1, "transit_distance_km": 6.07, "transit_time_minutes_nearest_tier": 20.0 }, "geometry": { "type": "Point", "coordinates": [ 144.921899419999988, -37.77533451 ] } },
{ "type": "Feature", "properties": { "STOP_NAME": "Ashburton Railway Station", "STOP_ID": "vic:rail:ASH", "MODE": "METRO TRAIN", "transit_time_minutes": 32.4, "transit_distance_km": 17.12, "transit_time_minutes_nearest_tier": 30.0 }, "geometry": { "type": "Point", "coordinates": [ 145.08134376000001, -37.86196753 ] } },
{ "type": "Feature", "properties": { "STOP_NAME": "Ashburton Station", "STOP_ID": "11198", "MODE": "METRO TRAIN", "transit_time_minutes": 32.4, "transit_distance_km": 17.12, "transit_time_minutes_nearest_tier": 30.0 }, "geometry": { "type": "Point", "coordinates": [ 145.08139014, -37.86193224 ] } },
{ "type": "Feature", "properties": { "STOP_NAME": "Aspendale Railway Station", "STOP_ID": "vic:rail:ASP", "MODE": "METRO TRAIN", "transit_time_minutes": 49.7, "transit_distance_km": 31.0, "transit_time_minutes_nearest_tier": 50.0 }, "geometry": { "type": "Point", "coordinates": [ 145.10214962, -38.02722019 ] } },
{ "type": "Feature", "properties": { "STOP_NAME": "Aspendale Station", "STOP_ID": "11234", "MODE": "METRO TRAIN", "transit_time_minutes": 47.0, "transit_distance_km": 30.83, "transit_time_minutes_nearest_tier": 45.0 }, "geometry": { "type": "Point", "coordinates": [ 145.10181775, -38.02683635 ] } },
{ "type": "Feature", "properties": { "STOP_NAME": "Auburn Railway Station", "STOP_ID": "vic:rail:AUB", "MODE": "METRO TRAIN", "transit_time_minutes": 19.7, "transit_distance_km": 10.71, "transit_time_minutes_nearest_tier": 20.0 }, "geometry": { "type": "Point", "coordinates": [ 145.04584366, -37.82239831 ] } },
{ "type": "Feature", "properties": { "STOP_NAME": "Auburn Station", "STOP_ID": "12238", "MODE": "METRO TRAIN", "transit_time_minutes": 19.4, "transit_distance_km": 10.69, "transit_time_minutes_nearest_tier": 20.0 }, "geometry": { "type": "Point", "coordinates": [ 145.046055380000013, -37.82255502 ] } },
{ "type": "Feature", "properties": { "STOP_NAME": "Balaclava Railway Station", "STOP_ID": "vic:rail:BCV", "MODE": "METRO TRAIN", "transit_time_minutes": 24.4, "transit_distance_km": 10.85, "transit_time_minutes_nearest_tier": 25.0 }, "geometry": { "type": "Point", "coordinates": [ 144.9935121, -37.86948773 ] } },
{ "type": "Feature", "properties": { "STOP_NAME": "Balaclava Station", "STOP_ID": "14287", "MODE": "METRO TRAIN", "transit_time_minutes": 24.4, "transit_distance_km": 10.85, "transit_time_minutes_nearest_tier": 25.0 }, "geometry": { "type": "Point", "coordinates": [ 144.99355315, -37.86965064 ] } },
{ "type": "Feature", "properties": { "STOP_NAME": "Batman Railway Station", "STOP_ID": "vic:rail:BAT", "MODE": "METRO TRAIN", "transit_time_minutes": 37.9, "transit_distance_km": 16.05, "transit_time_minutes_nearest_tier": 40.0 }, "geometry": { "type": "Point", "coordinates": [ 144.96284055000001, -37.73352285 ] } },
{ "type": "Feature", "properties": { "STOP_NAME": "Batman Station", "STOP_ID": "14306", "MODE": "METRO TRAIN", "transit_time_minutes": 35.2, "transit_distance_km": 15.96, "transit_time_minutes_nearest_tier": 35.0 }, "geometry": { "type": "Point", "coordinates": [ 144.9627671, -37.73289075 ] } },
{ "type": "Feature", "properties": { "STOP_NAME": "Baxter Railway Station", "STOP_ID": "vic:rail:BXR", "MODE": "METRO TRAIN", "transit_time_minutes": 98.0, "transit_distance_km": 52.56, "transit_time_minutes_nearest_tier": 100.0 }, "geometry": { "type": "Point", "coordinates": [ 145.16052609, -38.19404306 ] } },
{ "type": "Feature", "properties": { "STOP_NAME": "Baxter Station", "STOP_ID": "5701", "MODE": "METRO TRAIN", "transit_time_minutes": 98.0, "transit_distance_km": 52.56, "transit_time_minutes_nearest_tier": 100.0 }, "geometry": { "type": "Point", "coordinates": [ 145.16052586, -38.19405207 ] } },
{ "type": "Feature", "properties": { "STOP_NAME": "Bayswater Railway Station", "STOP_ID": "vic:rail:BAY", "MODE": "METRO TRAIN", "transit_time_minutes": 44.4, "transit_distance_km": 32.5, "transit_time_minutes_nearest_tier": 45.0 }, "geometry": { "type": "Point", "coordinates": [ 145.26813639, -37.84173004 ] } },
{ "type": "Feature", "properties": { "STOP_NAME": "Bayswater Station", "STOP_ID": "11410", "MODE": "METRO TRAIN", "transit_time_minutes": 44.4, "transit_distance_km": 32.5, "transit_time_minutes_nearest_tier": 45.0 }, "geometry": { "type": "Point", "coordinates": [ 145.26817867, -37.84186584 ] } },
{ "type": "Feature", "properties": { "STOP_NAME": "Beaconsfield Railway Station", "STOP_ID": "vic:rail:BFD", "MODE": "METRO TRAIN", "transit_time_minutes": 85.5, "transit_distance_km": 81.89, "transit_time_minutes_nearest_tier": 85.0 }, "geometry": { "type": "Point", "coordinates": [ 145.36607374, -38.05083135 ] } },
{ "type": "Feature", "properties": { "STOP_NAME": "Beaconsfield Station", "STOP_ID": "12176", "MODE": "METRO TRAIN", "transit_time_minutes": 81.5, "transit_distance_km": 81.69, "transit_time_minutes_nearest_tier": 80.0 }, "geometry": { "type": "Point", "coordinates": [ 145.366500269999989, -38.05112566 ] } },
{ "type": "Feature", "properties": { "STOP_NAME": "Belgrave Railway Station", "STOP_ID": "vic:rail:BEG", "MODE": "METRO TRAIN", "transit_time_minutes": 62.4, "transit_distance_km": 44.18, "transit_time_minutes_nearest_tier": 60.0 }, "geometry": { "type": "Point", "coordinates": [ 145.355291279999989, -37.9091021 ] } },
{ "type": "Feature", "properties": { "STOP_NAME": "Belgrave Station", "STOP_ID": "11119", "MODE": "METRO TRAIN", "transit_time_minutes": 62.4, "transit_distance_km": 44.18, "transit_time_minutes_nearest_tier": 60.0 }, "geometry": { "type": "Point", "coordinates": [ 145.35518814, -37.9091367 ] } },
{ "type": "Feature", "properties": { "STOP_NAME": "Bell Railway Station", "STOP_ID": "vic:rail:BEL", "MODE": "METRO TRAIN", "transit_time_minutes": 29.7, "transit_distance_km": 12.26, "transit_time_minutes_nearest_tier": 30.0 }, "geometry": { "type": "Point", "coordinates": [ 145.00015503, -37.74556212 ] } },
{ "type": "Feature", "properties": { "STOP_NAME": "Bell St", "STOP_ID": "vic:rail:BEL_EN1", "MODE": "METRO TRAIN", "transit_time_minutes": 28.4, "transit_distance_km": 12.21, "transit_time_minutes_nearest_tier": 30.0 }, "geometry": { "type": "Point", "coordinates": [ 145.000286069999987, -37.7457536 ] } },
{ "type": "Feature", "properties": { "STOP_NAME": "Bell Station", "STOP_ID": "15381", "MODE": "METRO TRAIN", "transit_time_minutes": 28.4, "transit_distance_km": 12.21, "transit_time_minutes_nearest_tier": 30.0 }, "geometry": { "type": "Point", "coordinates": [ 145.000369299999988, -37.74603438 ] } },
{ "type": "Feature", "properties": { "STOP_NAME": "Bentleigh Railway Station", "STOP_ID": "vic:rail:BEN", "MODE": "METRO TRAIN", "transit_time_minutes": 38.4, "transit_distance_km": 17.21, "transit_time_minutes_nearest_tier": 40.0 }, "geometry": { "type": "Point", "coordinates": [ 145.03699513, -37.91742457 ] } },
{ "type": "Feature", "properties": { "STOP_NAME": "Bentleigh Station", "STOP_ID": "14239", "MODE": "METRO TRAIN", "transit_time_minutes": 36.0, "transit_distance_km": 16.97, "transit_time_minutes_nearest_tier": 35.0 }, "geometry": { "type": "Point", "coordinates": [ 145.03698125, -37.91709091 ] } },
{ "type": "Feature", "properties": { "STOP_NAME": "Bike & Ride", "STOP_ID": "vic:rail:BEL_BR1", "MODE": "METRO TRAIN", "transit_time_minutes": 29.4, "transit_distance_km": 12.23, "transit_time_minutes_nearest_tier": 30.0 }, "geometry": { "type": "Point", "coordinates": [ 145.0001622, -37.74613901 ] } },
{ "type": "Feature", "properties": { "STOP_NAME": "Bike & Ride 1", "STOP_ID": "vic:rail:PRE_BR1", "MODE": "METRO TRAIN", "transit_time_minutes": 31.4, "transit_distance_km": 13.06, "transit_time_minutes_nearest_tier": 30.0 }, "geometry": { "type": "Point", "coordinates": [ 145.0005372, -37.73853031 ] } },
{ "type": "Feature", "properties": { "STOP_NAME": "Bike & Ride 2", "STOP_ID": "vic:rail:PRE_BR2", "MODE": "METRO TRAIN", "transit_time_minutes": 31.9, "transit_distance_km": 13.06, "transit_time_minutes_nearest_tier": 30.0 }, "geometry": { "type": "Point", "coordinates": [ 145.00058611, -37.73924308 ] } },
{ "type": "Feature", "properties": { "STOP_NAME": "Bike and Ride", "STOP_ID": "vic:rail:EPP_BR1", "MODE": "METRO TRAIN", "transit_time_minutes": 47.9, "transit_distance_km": 23.54, "transit_time_minutes_nearest_tier": 50.0 }, "geometry": { "type": "Point", "coordinates": [ 145.03103116, -37.65228518 ] } },
{ "type": "Feature", "properties": { "STOP_NAME": "Bike and Ride 1", "STOP_ID": "vic:rail:HWS_BR1", "MODE": "METRO TRAIN", "transit_time_minutes": 57.5, "transit_distance_km": 31.34, "transit_time_minutes_nearest_tier": 60.0 }, "geometry": { "type": "Point", "coordinates": [ 145.097467279999989, -37.62242793 ] } },
{ "type": "Feature", "properties": { "STOP_NAME": "Bittern Railway Station", "STOP_ID": "vic:rail:BIT", "MODE": "METRO TRAIN", "transit_time_minutes": 117.3, "transit_distance_km": 69.3, "transit_time_minutes_nearest_tier": 115.0 }, "geometry": { "type": "Point", "coordinates": [ 145.178026530000011, -38.33739032 ] } },
{ "type": "Feature", "properties": { "STOP_NAME": "Bittern Station", "STOP_ID": "3236", "MODE": "METRO TRAIN", "transit_time_minutes": 115.0, "transit_distance_km": 69.27, "transit_time_minutes_nearest_tier": 115.0 }, "geometry": { "type": "Point", "coordinates": [ 145.17804406, -38.33714729 ] } },
{ "type": "Feature", "properties": { "STOP_NAME": "Blackburn Railway Station", "STOP_ID": "vic:rail:BBN", "MODE": "METRO TRAIN", "transit_time_minutes": 28.4, "transit_distance_km": 20.35, "transit_time_minutes_nearest_tier": 30.0 }, "geometry": { "type": "Point", "coordinates": [ 145.15001354, -37.82007075 ] } },
{ "type": "Feature", "properties": { "STOP_NAME": "Blackburn Station", "STOP_ID": "12226", "MODE": "METRO TRAIN", "transit_time_minutes": 28.4, "transit_distance_km": 20.35, "transit_time_minutes_nearest_tier": 30.0 }, "geometry": { "type": "Point", "coordinates": [ 145.15006717, -37.82019776 ] } },
{ "type": "Feature", "properties": { "STOP_NAME": "Bonbeach Railway Station", "STOP_ID": "vic:rail:BON", "MODE": "METRO TRAIN", "transit_time_minutes": 53.0, "transit_distance_km": 35.45, "transit_time_minutes_nearest_tier": 55.0 }, "geometry": { "type": "Point", "coordinates": [ 145.1201058, -38.06547485 ] } },
{ "type": "Feature", "properties": { "STOP_NAME": "Bonbeach Station", "STOP_ID": "11228", "MODE": "METRO TRAIN", "transit_time_minutes": 53.0, "transit_distance_km": 35.45, "transit_time_minutes_nearest_tier": 55.0 }, "geometry": { "type": "Point", "coordinates": [ 145.12005815, -38.06555519 ] } },
{ "type": "Feature", "properties": { "STOP_NAME": "Boronia Railway Station", "STOP_ID": "vic:rail:BOR", "MODE": "METRO TRAIN", "transit_time_minutes": 47.4, "transit_distance_km": 35.05, "transit_time_minutes_nearest_tier": 45.0 }, "geometry": { "type": "Point", "coordinates": [ 145.28470457, -37.86040238 ] } },
{ "type": "Feature", "properties": { "STOP_NAME": "Boronia Station", "STOP_ID": "11249", "MODE": "METRO TRAIN", "transit_time_minutes": 47.4, "transit_distance_km": 35.05, "transit_time_minutes_nearest_tier": 45.0 }, "geometry": { "type": "Point", "coordinates": [ 145.28473574, -37.86052901 ] } },
{ "type": "Feature", "properties": { "STOP_NAME": "Box Hill Railway Station", "STOP_ID": "vic:rail:BOX", "MODE": "METRO TRAIN", "transit_time_minutes": 24.4, "transit_distance_km": 17.79, "transit_time_minutes_nearest_tier": 25.0 }, "geometry": { "type": "Point", "coordinates": [ 145.12142893, -37.81922165 ] } },
{ "type": "Feature", "properties": { "STOP_NAME": "Box Hill Station", "STOP_ID": "12221", "MODE": "METRO TRAIN", "transit_time_minutes": 26.2, "transit_distance_km": 17.87, "transit_time_minutes_nearest_tier": 25.0 }, "geometry": { "type": "Point", "coordinates": [ 145.12183478, -37.81934528 ] } },
{ "type": "Feature", "properties": { "STOP_NAME": "Bridge St", "STOP_ID": "vic:rail:MER_EN2", "MODE": "METRO TRAIN", "transit_time_minutes": 21.4, "transit_distance_km": 8.59, "transit_time_minutes_nearest_tier": 20.0 }, "geometry": { "type": "Point", "coordinates": [ 144.99319653, -37.77795864 ] } },
{ "type": "Feature", "properties": { "STOP_NAME": "Bridge St/Railway St", "STOP_ID": "vic:rail:MER_EN1", "MODE": "METRO TRAIN", "transit_time_minutes": 23.2, "transit_distance_km": 8.61, "transit_time_minutes_nearest_tier": 25.0 }, "geometry": { "type": "Point", "coordinates": [ 144.993267550000013, -37.7778517 ] } },
{ "type": "Feature", "properties": { "STOP_NAME": "Brighton Beach Railway Station", "STOP_ID": "vic:rail:BBH", "MODE": "METRO TRAIN", "transit_time_minutes": 38.0, "transit_distance_km": 16.53, "transit_time_minutes_nearest_tier": 40.0 }, "geometry": { "type": "Point", "coordinates": [ 144.98915355, -37.92648432 ] } },
{ "type": "Feature", "properties": { "STOP_NAME": "Brighton Beach Station", "STOP_ID": "14275", "MODE": "METRO TRAIN", "transit_time_minutes": 38.0, "transit_distance_km": 16.53, "transit_time_minutes_nearest_tier": 40.0 }, "geometry": { "type": "Point", "coordinates": [ 144.98921409, -37.92635018 ] } },
{ "type": "Feature", "properties": { "STOP_NAME": "Brunswick Railway Station", "STOP_ID": "vic:rail:BWK", "MODE": "METRO TRAIN", "transit_time_minutes": 27.2, "transit_distance_km": 12.06, "transit_time_minutes_nearest_tier": 25.0 }, "geometry": { "type": "Point", "coordinates": [ 144.95958654, -37.76772055 ] } },
{ "type": "Feature", "properties": { "STOP_NAME": "Brunswick Station", "STOP_ID": "14314", "MODE": "METRO TRAIN", "transit_time_minutes": 27.2, "transit_distance_km": 12.06, "transit_time_minutes_nearest_tier": 25.0 }, "geometry": { "type": "Point", "coordinates": [ 144.95965388, -37.76774875 ] } },
{ "type": "Feature", "properties": { "STOP_NAME": "Burnley Railway Station", "STOP_ID": "vic:rail:BLY", "MODE": "METRO TRAIN", "transit_time_minutes": 15.1, "transit_distance_km": 7.15, "transit_time_minutes_nearest_tier": 15.0 }, "geometry": { "type": "Point", "coordinates": [ 145.00755515, -37.82756022 ] } },
{ "type": "Feature", "properties": { "STOP_NAME": "Burnley Station", "STOP_ID": "12247", "MODE": "METRO TRAIN", "transit_time_minutes": 15.1, "transit_distance_km": 7.14, "transit_time_minutes_nearest_tier": 15.0 }, "geometry": { "type": "Point", "coordinates": [ 145.00765396, -37.82768805 ] } },
{ "type": "Feature", "properties": { "STOP_NAME": "Burwood Railway Station", "STOP_ID": "vic:rail:BWD", "MODE": "METRO TRAIN", "transit_time_minutes": 30.4, "transit_distance_km": 15.91, "transit_time_minutes_nearest_tier": 30.0 }, "geometry": { "type": "Point", "coordinates": [ 145.08051107, -37.85156328 ] } },
{ "type": "Feature", "properties": { "STOP_NAME": "Burwood Station", "STOP_ID": "11199", "MODE": "METRO TRAIN", "transit_time_minutes": 30.4, "transit_distance_km": 15.91, "transit_time_minutes_nearest_tier": 30.0 }, "geometry": { "type": "Point", "coordinates": [ 145.08061168, -37.85162801 ] } },
{ "type": "Feature", "properties": { "STOP_NAME": "Bus Interchange", "STOP_ID": "vic:rail:SMG_EN2", "MODE": "METRO TRAIN", "transit_time_minutes": 51.4, "transit_distance_km": 26.57, "transit_time_minutes_nearest_tier": 50.0 }, "geometry": { "type": "Point", "coordinates": [ 145.06789441, -37.64913687 ] } },
{ "type": "Feature", "properties": { "STOP_NAME": "Camberwell Railway Station", "STOP_ID": "vic:rail:CAM", "MODE": "METRO TRAIN", "transit_time_minutes": 19.4, "transit_distance_km": 11.92, "transit_time_minutes_nearest_tier": 20.0 }, "geometry": { "type": "Point", "coordinates": [ 145.05869718, -37.82656714 ] } },
{ "type": "Feature", "properties": { "STOP_NAME": "Camberwell Station", "STOP_ID": "11207", "MODE": "METRO TRAIN", "transit_time_minutes": 24.8, "transit_distance_km": 12.02, "transit_time_minutes_nearest_tier": 25.0 }, "geometry": { "type": "Point", "coordinates": [ 145.05836453, -37.82668783 ] } },
{ "type": "Feature", "properties": { "STOP_NAME": "Canterbury Railway Station", "STOP_ID": "vic:rail:CBY", "MODE": "METRO TRAIN", "transit_time_minutes": 28.5, "transit_distance_km": 14.07, "transit_time_minutes_nearest_tier": 30.0 }, "geometry": { "type": "Point", "coordinates": [ 145.081224240000012, -37.82448518 ] } },
{ "type": "Feature", "properties": { "STOP_NAME": "Canterbury Station", "STOP_ID": "12209", "MODE": "METRO TRAIN", "transit_time_minutes": 25.4, "transit_distance_km": 13.91, "transit_time_minutes_nearest_tier": 25.0 }, "geometry": { "type": "Point", "coordinates": [ 145.080661709999987, -37.82471032 ] } },
{ "type": "Feature", "properties": { "STOP_NAME": "Cardinia Road Railway Station", "STOP_ID": "vic:rail:CDA", "MODE": "METRO TRAIN", "transit_time_minutes": 74.5, "transit_distance_km": 74.92, "transit_time_minutes_nearest_tier": 75.0 }, "geometry": { "type": "Point", "coordinates": [ 145.437791010000012, -38.07129047 ] } },
{ "type": "Feature", "properties": { "STOP_NAME": "Cardinia Road Station", "STOP_ID": "26501", "MODE": "METRO TRAIN", "transit_time_minutes": 74.5, "transit_distance_km": 74.92, "transit_time_minutes_nearest_tier": 75.0 }, "geometry": { "type": "Point", "coordinates": [ 145.437631259999989, -38.07129736 ] } },
{ "type": "Feature", "properties": { "STOP_NAME": "Carnegie Railway Station", "STOP_ID": "vic:rail:CNE", "MODE": "METRO TRAIN", "transit_time_minutes": 47.4, "transit_distance_km": 14.52, "transit_time_minutes_nearest_tier": 45.0 }, "geometry": { "type": "Point", "coordinates": [ 145.05857506000001, -37.88624148 ] } },
{ "type": "Feature", "properties": { "STOP_NAME": "Carnegie Station", "STOP_ID": "13729", "MODE": "METRO TRAIN", "transit_time_minutes": 47.5, "transit_distance_km": 14.53, "transit_time_minutes_nearest_tier": 50.0 }, "geometry": { "type": "Point", "coordinates": [ 145.05872045000001, -37.886334 ] } },
{ "type": "Feature", "properties": { "STOP_NAME": "Carrum Railway Station", "STOP_ID": "vic:rail:CAR", "MODE": "METRO TRAIN", "transit_time_minutes": 57.7, "transit_distance_km": 36.94, "transit_time_minutes_nearest_tier": 60.0 }, "geometry": { "type": "Point", "coordinates": [ 145.122809600000011, -38.07653027 ] } },
{ "type": "Feature", "properties": { "STOP_NAME": "Carrum Station", "STOP_ID": "11226", "MODE": "METRO TRAIN", "transit_time_minutes": 55.0, "transit_distance_km": 36.81, "transit_time_minutes_nearest_tier": 55.0 }, "geometry": { "type": "Point", "coordinates": [ 145.12304429, -38.07760641 ] } },
{ "type": "Feature", "properties": { "STOP_NAME": "Chatham Railway Station", "STOP_ID": "vic:rail:CHM", "MODE": "METRO TRAIN", "transit_time_minutes": 27.4, "transit_distance_km": 14.63, "transit_time_minutes_nearest_tier": 25.0 }, "geometry": { "type": "Point", "coordinates": [ 145.08864793, -37.82429952 ] } },
{ "type": "Feature", "properties": { "STOP_NAME": "Chatham Station", "STOP_ID": "12212", "MODE": "METRO TRAIN", "transit_time_minutes": 27.4, "transit_distance_km": 14.63, "transit_time_minutes_nearest_tier": 25.0 }, "geometry": { "type": "Point", "coordinates": [ 145.08866022, -37.82426367 ] } },
{ "type": "Feature", "properties": { "STOP_NAME": "Chelsea Railway Station", "STOP_ID": "vic:rail:CSA", "MODE": "METRO TRAIN", "transit_time_minutes": 51.0, "transit_distance_km": 34.05, "transit_time_minutes_nearest_tier": 50.0 }, "geometry": { "type": "Point", "coordinates": [ 145.1166795, -38.05329032 ] } },
{ "type": "Feature", "properties": { "STOP_NAME": "Chelsea Station", "STOP_ID": "11230", "MODE": "METRO TRAIN", "transit_time_minutes": 51.0, "transit_distance_km": 34.05, "transit_time_minutes_nearest_tier": 50.0 }, "geometry": { "type": "Point", "coordinates": [ 145.116544870000013, -38.05320706 ] } },
{ "type": "Feature", "properties": { "STOP_NAME": "Cheltenham Railway Station", "STOP_ID": "vic:rail:CTM", "MODE": "METRO TRAIN", "transit_time_minutes": 36.0, "transit_distance_km": 22.92, "transit_time_minutes_nearest_tier": 35.0 }, "geometry": { "type": "Point", "coordinates": [ 145.054557929999987, -37.96664989 ] } },
{ "type": "Feature", "properties": { "STOP_NAME": "Cheltenham Station", "STOP_ID": "11242", "MODE": "METRO TRAIN", "transit_time_minutes": 36.0, "transit_distance_km": 22.92, "transit_time_minutes_nearest_tier": 35.0 }, "geometry": { "type": "Point", "coordinates": [ 145.05446762, -37.96662137 ] } },
{ "type": "Feature", "properties": { "STOP_NAME": "Clapham St", "STOP_ID": "vic:rail:TBY_EN2", "MODE": "METRO TRAIN", "transit_time_minutes": 29.5, "transit_distance_km": 11.19, "transit_time_minutes_nearest_tier": 30.0 }, "geometry": { "type": "Point", "coordinates": [ 144.99841414, -37.75499505 ] } },
{ "type": "Feature", "properties": { "STOP_NAME": "Clifton Hill Railway Station", "STOP_ID": "vic:rail:CHL", "MODE": "METRO TRAIN", "transit_time_minutes": 19.2, "transit_distance_km": 7.17, "transit_time_minutes_nearest_tier": 20.0 }, "geometry": { "type": "Point", "coordinates": [ 144.9954167, -37.78865745 ] } },
{ "type": "Feature", "properties": { "STOP_NAME": "Clifton Hill Station", "STOP_ID": "14330", "MODE": "METRO TRAIN", "transit_time_minutes": 20.1, "transit_distance_km": 7.22, "transit_time_minutes_nearest_tier": 20.0 }, "geometry": { "type": "Point", "coordinates": [ 144.99550102, -37.78847865 ] } },
{ "type": "Feature", "properties": { "STOP_NAME": "Coburg Railway Station", "STOP_ID": "vic:rail:COB", "MODE": "METRO TRAIN", "transit_time_minutes": 32.2, "transit_distance_km": 14.9, "transit_time_minutes_nearest_tier": 30.0 }, "geometry": { "type": "Point", "coordinates": [ 144.963336340000012, -37.74234502 ] } },
{ "type": "Feature", "properties": { "STOP_NAME": "Coburg Station", "STOP_ID": "14308", "MODE": "METRO TRAIN", "transit_time_minutes": 32.2, "transit_distance_km": 14.9, "transit_time_minutes_nearest_tier": 30.0 }, "geometry": { "type": "Point", "coordinates": [ 144.96338122, -37.74236382 ] } },
{ "type": "Feature", "properties": { "STOP_NAME": "Collingwood Railway Station", "STOP_ID": "vic:rail:CWD", "MODE": "METRO TRAIN", "transit_time_minutes": 13.4, "transit_distance_km": 5.38, "transit_time_minutes_nearest_tier": 15.0 }, "geometry": { "type": "Point", "coordinates": [ 144.99374967, -37.80452593 ] } },
{ "type": "Feature", "properties": { "STOP_NAME": "Collingwood Station", "STOP_ID": "14334", "MODE": "METRO TRAIN", "transit_time_minutes": 13.4, "transit_distance_km": 5.38, "transit_time_minutes_nearest_tier": 15.0 }, "geometry": { "type": "Point", "coordinates": [ 144.993707910000012, -37.80439004 ] } },
{ "type": "Feature", "properties": { "STOP_NAME": "Concourse", "STOP_ID": "vic:rail:BEL_CN1", "MODE": "METRO TRAIN", "transit_time_minutes": 28.4, "transit_distance_km": 12.21, "transit_time_minutes_nearest_tier": 30.0 }, "geometry": { "type": "Point", "coordinates": [ 145.00025829, -37.74594237 ] } },
{ "type": "Feature", "properties": { "STOP_NAME": "Connex", "STOP_ID": "vic:rail:BEL_ConX", "MODE": "METRO TRAIN", "transit_time_minutes": 29.7, "transit_distance_km": 12.26, "transit_time_minutes_nearest_tier": 30.0 }, "geometry": { "type": "Point", "coordinates": [ 145.00015503, -37.74556212 ] } },
{ "type": "Feature", "properties": { "STOP_NAME": "Coolaroo Railway Station", "STOP_ID": "vic:rail:CLO", "MODE": "METRO TRAIN", "transit_time_minutes": 46.8, "transit_distance_km": 24.14, "transit_time_minutes_nearest_tier": 45.0 }, "geometry": { "type": "Point", "coordinates": [ 144.92604123000001, -37.66111042 ] } },
{ "type": "Feature", "properties": { "STOP_NAME": "Coolaroo Station", "STOP_ID": "26503", "MODE": "METRO TRAIN", "transit_time_minutes": 46.2, "transit_distance_km": 24.09, "transit_time_minutes_nearest_tier": 45.0 }, "geometry": { "type": "Point", "coordinates": [ 144.92601811, -37.66153357 ] } },
{ "type": "Feature", "properties": { "STOP_NAME": "Cooper St", "STOP_ID": "vic:rail:EPP_EN1", "MODE": "METRO TRAIN", "transit_time_minutes": 47.9, "transit_distance_km": 23.54, "transit_time_minutes_nearest_tier": 50.0 }, "geometry": { "type": "Point", "coordinates": [ 145.03101088, -37.65219472 ] } },
{ "type": "Feature", "properties": { "STOP_NAME": "Cramer St", "STOP_ID": "vic:rail:PRE_EN2", "MODE": "METRO TRAIN", "transit_time_minutes": 30.4, "transit_distance_km": 13.02, "transit_time_minutes_nearest_tier": 30.0 }, "geometry": { "type": "Point", "coordinates": [ 145.00050288, -37.7389623 ] } },
{ "type": "Feature", "properties": { "STOP_NAME": "Cranbourne Railway Station", "STOP_ID": "vic:rail:CBE", "MODE": "METRO TRAIN", "transit_time_minutes": 78.7, "transit_distance_km": 45.45, "transit_time_minutes_nearest_tier": 80.0 }, "geometry": { "type": "Point", "coordinates": [ 145.28059898, -38.09953731 ] } },
{ "type": "Feature", "properties": { "STOP_NAME": "Cranbourne Station", "STOP_ID": "12184", "MODE": "METRO TRAIN", "transit_time_minutes": 119.0, "transit_distance_km": 61.3, "transit_time_minutes_nearest_tier": 120.0 }, "geometry": { "type": "Point", "coordinates": [ 145.28047231, -38.09958952 ] } },
{ "type": "Feature", "properties": { "STOP_NAME": "Crib Point Railway Station", "STOP_ID": "vic:rail:CPT", "MODE": "METRO TRAIN", "transit_time_minutes": 121.1, "transit_distance_km": 73.42, "transit_time_minutes_nearest_tier": 120.0 }, "geometry": { "type": "Point", "coordinates": [ 145.204043320000011, -38.36612338 ] } },
{ "type": "Feature", "properties": { "STOP_NAME": "Crib Point Station", "STOP_ID": "615", "MODE": "METRO TRAIN", "transit_time_minutes": 121.0, "transit_distance_km": 73.39, "transit_time_minutes_nearest_tier": 120.0 }, "geometry": { "type": "Point", "coordinates": [ 145.20368566, -38.36577547 ] } },
{ "type": "Feature", "properties": { "STOP_NAME": "Croxton Railway Station", "STOP_ID": "vic:rail:CXT", "MODE": "METRO TRAIN", "transit_time_minutes": 25.4, "transit_distance_km": 10.17, "transit_time_minutes_nearest_tier": 25.0 }, "geometry": { "type": "Point", "coordinates": [ 144.99705619, -37.764101 ] } },
{ "type": "Feature", "properties": { "STOP_NAME": "Croxton Station", "STOP_ID": "15385", "MODE": "METRO TRAIN", "transit_time_minutes": 25.4, "transit_distance_km": 10.17, "transit_time_minutes_nearest_tier": 25.0 }, "geometry": { "type": "Point", "coordinates": [ 144.99710084, -37.7641288 ] } },
{ "type": "Feature", "properties": { "STOP_NAME": "Croydon Railway Station", "STOP_ID": "vic:rail:CDN", "MODE": "METRO TRAIN", "transit_time_minutes": 45.4, "transit_distance_km": 32.74, "transit_time_minutes_nearest_tier": 45.0 }, "geometry": { "type": "Point", "coordinates": [ 145.28048737, -37.79530018 ] } },
{ "type": "Feature", "properties": { "STOP_NAME": "Croydon Station", "STOP_ID": "12168", "MODE": "METRO TRAIN", "transit_time_minutes": 45.4, "transit_distance_km": 32.74, "transit_time_minutes_nearest_tier": 45.0 }, "geometry": { "type": "Point", "coordinates": [ 145.28070162, -37.79536639 ] } },
{ "type": "Feature", "properties": { "STOP_NAME": "Darebin Railway Station", "STOP_ID": "vic:rail:DBN", "MODE": "METRO TRAIN", "transit_time_minutes": 28.4, "transit_distance_km": 11.77, "transit_time_minutes_nearest_tier": 30.0 }, "geometry": { "type": "Point", "coordinates": [ 145.038475979999987, -37.77496341 ] } },
{ "type": "Feature", "properties": { "STOP_NAME": "Darebin Station", "STOP_ID": "13752", "MODE": "METRO TRAIN", "transit_time_minutes": 28.4, "transit_distance_km": 11.77, "transit_time_minutes_nearest_tier": 30.0 }, "geometry": { "type": "Point", "coordinates": [ 145.03862494, -37.77491182 ] } },
{ "type": "Feature", "properties": { "STOP_NAME": "Darling Railway Station", "STOP_ID": "vic:rail:DLG", "MODE": "METRO TRAIN", "transit_time_minutes": 32.4, "transit_distance_km": 14.4, "transit_time_minutes_nearest_tier": 30.0 }, "geometry": { "type": "Point", "coordinates": [ 145.06295083, -37.86895684 ] } },
{ "type": "Feature", "properties": { "STOP_NAME": "Darling Station", "STOP_ID": "8272", "MODE": "METRO TRAIN", "transit_time_minutes": 32.4, "transit_distance_km": 14.4, "transit_time_minutes_nearest_tier": 30.0 }, "geometry": { "type": "Point", "coordinates": [ 145.062860160000014, -37.86894634 ] } },
{ "type": "Feature", "properties": { "STOP_NAME": "Decision Point", "STOP_ID": "vic:rail:REG_DP1", "MODE": "METRO TRAIN", "transit_time_minutes": 36.3, "transit_distance_km": 14.26, "transit_time_minutes_nearest_tier": 35.0 }, "geometry": { "type": "Point", "coordinates": [ 145.00299845, -37.72801909 ] } },
{ "type": "Feature", "properties": { "STOP_NAME": "Decision Point 1", "STOP_ID": "vic:rail:CWD_DP1", "MODE": "METRO TRAIN", "transit_time_minutes": 16.6, "transit_distance_km": 5.48, "transit_time_minutes_nearest_tier": 15.0 }, "geometry": { "type": "Point", "coordinates": [ 144.99381047, -37.80479732 ] } },
{ "type": "Feature", "properties": { "STOP_NAME": "Decision Point 2", "STOP_ID": "vic:rail:CWD_DP2", "MODE": "METRO TRAIN", "transit_time_minutes": 16.9, "transit_distance_km": 5.5, "transit_time_minutes_nearest_tier": 15.0 }, "geometry": { "type": "Point", "coordinates": [ 144.993559979999986, -37.80482008 ] } },
{ "type": "Feature", "properties": { "STOP_NAME": "Decision Point 3", "STOP_ID": "vic:rail:MER_DP3", "MODE": "METRO TRAIN", "transit_time_minutes": 24.1, "transit_distance_km": 8.67, "transit_time_minutes_nearest_tier": 25.0 }, "geometry": { "type": "Point", "coordinates": [ 144.99270916, -37.77834685 ] } },
{ "type": "Feature", "properties": { "STOP_NAME": "Decision Point 4", "STOP_ID": "vic:rail:VPK_DP4", "MODE": "METRO TRAIN", "transit_time_minutes": 17.7, "transit_distance_km": 6.06, "transit_time_minutes_nearest_tier": 20.0 }, "geometry": { "type": "Point", "coordinates": [ 144.99442156, -37.79984221 ] } },
{ "type": "Feature", "properties": { "STOP_NAME": "Decision Point 5", "STOP_ID": "vic:rail:VPK_DP5", "MODE": "METRO TRAIN", "transit_time_minutes": 18.8, "transit_distance_km": 6.11, "transit_time_minutes_nearest_tier": 20.0 }, "geometry": { "type": "Point", "coordinates": [ 144.99449518, -37.79796 ] } },
{ "type": "Feature", "properties": { "STOP_NAME": "Decision Point 6", "STOP_ID": "vic:rail:VPK_DP6", "MODE": "METRO TRAIN", "transit_time_minutes": 17.9, "transit_distance_km": 6.06, "transit_time_minutes_nearest_tier": 20.0 }, "geometry": { "type": "Point", "coordinates": [ 144.994195, -37.79982033 ] } },
{ "type": "Feature", "properties": { "STOP_NAME": "Decision point 1", "STOP_ID": "vic:rail:JLI_DP1", "MODE": "METRO TRAIN", "transit_time_minutes": 16.6, "transit_distance_km": 5.48, "transit_time_minutes_nearest_tier": 15.0 }, "geometry": { "type": "Point", "coordinates": [ 144.985100319999987, -37.81685959 ] } },
{ "type": "Feature", "properties": { "STOP_NAME": "Decision point 2", "STOP_ID": "vic:rail:JLI_DP2", "MODE": "METRO TRAIN", "transit_time_minutes": 16.9, "transit_distance_km": 5.5, "transit_time_minutes_nearest_tier": 15.0 }, "geometry": { "type": "Point", "coordinates": [ 144.98446340000001, -37.81647019 ] } },
{ "type": "Feature", "properties": { "STOP_NAME": "Decision point 3", "STOP_ID": "vic:rail:JLI_DP3", "MODE": "METRO TRAIN", "transit_time_minutes": 24.1, "transit_distance_km": 8.67, "transit_time_minutes_nearest_tier": 25.0 }, "geometry": { "type": "Point", "coordinates": [ 144.98512695, -37.81671585 ] } },
{ "type": "Feature", "properties": { "STOP_NAME": "Decision point 4", "STOP_ID": "vic:rail:JLI_DP4", "MODE": "METRO TRAIN", "transit_time_minutes": 17.7, "transit_distance_km": 6.06, "transit_time_minutes_nearest_tier": 20.0 }, "geometry": { "type": "Point", "coordinates": [ 144.98347016, -37.81665144 ] } },
{ "type": "Feature", "properties": { "STOP_NAME": "Decision point 5", "STOP_ID": "vic:rail:JLI_DP5", "MODE": "METRO TRAIN", "transit_time_minutes": 18.8, "transit_distance_km": 6.11, "transit_time_minutes_nearest_tier": 20.0 }, "geometry": { "type": "Point", "coordinates": [ 144.983523420000012, -37.81636398 ] } },
{ "type": "Feature", "properties": { "STOP_NAME": "Decision point 6", "STOP_ID": "vic:rail:NRM_DP6", "MODE": "METRO TRAIN", "transit_time_minutes": 17.9, "transit_distance_km": 6.06, "transit_time_minutes_nearest_tier": 20.0 }, "geometry": { "type": "Point", "coordinates": [ 144.99224646, -37.81096177 ] } },
{ "type": "Feature", "properties": { "STOP_NAME": "Dennis Railway Station", "STOP_ID": "vic:rail:DEN", "MODE": "METRO TRAIN", "transit_time_minutes": 21.4, "transit_distance_km": 8.96, "transit_time_minutes_nearest_tier": 20.0 }, "geometry": { "type": "Point", "coordinates": [ 145.008241629999986, -37.77918729 ] } },
{ "type": "Feature", "properties": { "STOP_NAME": "Dennis Station", "STOP_ID": "13746", "MODE": "METRO TRAIN", "transit_time_minutes": 21.4, "transit_distance_km": 8.96, "transit_time_minutes_nearest_tier": 20.0 }, "geometry": { "type": "Point", "coordinates": [ 145.00825153, -37.77924153 ] } },
{ "type": "Feature", "properties": { "STOP_NAME": "Diamond Creek Railway Station", "STOP_ID": "vic:rail:DCK", "MODE": "METRO TRAIN", "transit_time_minutes": 105.7, "transit_distance_km": 35.43, "transit_time_minutes_nearest_tier": 105.0 }, "geometry": { "type": "Point", "coordinates": [ 145.15853819, -37.67337905 ] } },
{ "type": "Feature", "properties": { "STOP_NAME": "Diamond Creek Station", "STOP_ID": "15334", "MODE": "METRO TRAIN", "transit_time_minutes": 105.5, "transit_distance_km": 35.42, "transit_time_minutes_nearest_tier": 105.0 }, "geometry": { "type": "Point", "coordinates": [ 145.15876709, -37.6732925 ] } },
{ "type": "Feature", "properties": { "STOP_NAME": "Diggers Rest Railway Station", "STOP_ID": "vic:rail:DRT", "MODE": "METRO TRAIN", "transit_time_minutes": 66.2, "transit_distance_km": 44.16, "transit_time_minutes_nearest_tier": 65.0 }, "geometry": { "type": "Point", "coordinates": [ 144.71982218, -37.62696051 ] } },
{ "type": "Feature", "properties": { "STOP_NAME": "Diggers Rest Station", "STOP_ID": "15354", "MODE": "METRO TRAIN", "transit_time_minutes": 63.7, "transit_distance_km": 44.08, "transit_time_minutes_nearest_tier": 65.0 }, "geometry": { "type": "Point", "coordinates": [ 144.71998051, -37.62771153 ] } },
{ "type": "Feature", "properties": { "STOP_NAME": "Eaglemont Railway Station", "STOP_ID": "vic:rail:EAG", "MODE": "METRO TRAIN", "transit_time_minutes": 31.4, "transit_distance_km": 13.64, "transit_time_minutes_nearest_tier": 30.0 }, "geometry": { "type": "Point", "coordinates": [ 145.053942690000014, -37.76358553 ] } },
{ "type": "Feature", "properties": { "STOP_NAME": "Eaglemont Station", "STOP_ID": "13756", "MODE": "METRO TRAIN", "transit_time_minutes": 31.4, "transit_distance_km": 13.64, "transit_time_minutes_nearest_tier": 30.0 }, "geometry": { "type": "Point", "coordinates": [ 145.053882179999988, -37.76372873 ] } },
{ "type": "Feature", "properties": { "STOP_NAME": "East Camberwell Railway Station", "STOP_ID": "vic:rail:ECM", "MODE": "METRO TRAIN", "transit_time_minutes": 23.4, "transit_distance_km": 12.77, "transit_time_minutes_nearest_tier": 25.0 }, "geometry": { "type": "Point", "coordinates": [ 145.068190249999986, -37.82589419 ] } },
{ "type": "Feature", "properties": { "STOP_NAME": "East Camberwell Station", "STOP_ID": "12206", "MODE": "METRO TRAIN", "transit_time_minutes": 23.4, "transit_distance_km": 12.77, "transit_time_minutes_nearest_tier": 25.0 }, "geometry": { "type": "Point", "coordinates": [ 145.06824844, -37.82584107 ] } },
{ "type": "Feature", "properties": { "STOP_NAME": "East Malvern Railway Station", "STOP_ID": "vic:rail:EMV", "MODE": "METRO TRAIN", "transit_time_minutes": 36.8, "transit_distance_km": 14.43, "transit_time_minutes_nearest_tier": 35.0 }, "geometry": { "type": "Point", "coordinates": [ 145.069393240000011, -37.87692101 ] } },
{ "type": "Feature", "properties": { "STOP_NAME": "East Malvern Station", "STOP_ID": "8705", "MODE": "METRO TRAIN", "transit_time_minutes": 32.4, "transit_distance_km": 14.28, "transit_time_minutes_nearest_tier": 30.0 }, "geometry": { "type": "Point", "coordinates": [ 145.06911007, -37.87688031 ] } },
{ "type": "Feature", "properties": { "STOP_NAME": "East Richmond Railway Station", "STOP_ID": "vic:rail:ERM", "MODE": "METRO TRAIN", "transit_time_minutes": 17.4, "transit_distance_km": 4.96, "transit_time_minutes_nearest_tier": 15.0 }, "geometry": { "type": "Point", "coordinates": [ 144.99706569, -37.82639995 ] } },
{ "type": "Feature", "properties": { "STOP_NAME": "East Richmond Station", "STOP_ID": "12251", "MODE": "METRO TRAIN", "transit_time_minutes": 15.4, "transit_distance_km": 4.9, "transit_time_minutes_nearest_tier": 15.0 }, "geometry": { "type": "Point", "coordinates": [ 144.99675591, -37.82651183 ] } },
{ "type": "Feature", "properties": { "STOP_NAME": "Edithvale Railway Station", "STOP_ID": "vic:rail:EDI", "MODE": "METRO TRAIN", "transit_time_minutes": 52.1, "transit_distance_km": 32.09, "transit_time_minutes_nearest_tier": 50.0 }, "geometry": { "type": "Point", "coordinates": [ 145.1073221, -38.03606293 ] } },
{ "type": "Feature", "properties": { "STOP_NAME": "Edithvale Station", "STOP_ID": "11232", "MODE": "METRO TRAIN", "transit_time_minutes": 49.0, "transit_distance_km": 32.0, "transit_time_minutes_nearest_tier": 50.0 }, "geometry": { "type": "Point", "coordinates": [ 145.10737301, -38.03629805 ] } },
{ "type": "Feature", "properties": { "STOP_NAME": "Elizabeth St", "STOP_ID": "vic:rail:NRM_EN2", "MODE": "METRO TRAIN", "transit_time_minutes": 13.7, "transit_distance_km": 4.77, "transit_time_minutes_nearest_tier": 15.0 }, "geometry": { "type": "Point", "coordinates": [ 144.992563639999986, -37.81099422 ] } },
{ "type": "Feature", "properties": { "STOP_NAME": "Elsternwick Railway Station", "STOP_ID": "vic:rail:ELS", "MODE": "METRO TRAIN", "transit_time_minutes": 31.9, "transit_distance_km": 13.0, "transit_time_minutes_nearest_tier": 30.0 }, "geometry": { "type": "Point", "coordinates": [ 145.000897869999989, -37.88475311 ] } },
{ "type": "Feature", "properties": { "STOP_NAME": "Elsternwick Station", "STOP_ID": "14283", "MODE": "METRO TRAIN", "transit_time_minutes": 28.4, "transit_distance_km": 12.76, "transit_time_minutes_nearest_tier": 30.0 }, "geometry": { "type": "Point", "coordinates": [ 145.00118021, -37.88524454 ] } },
{ "type": "Feature", "properties": { "STOP_NAME": "Eltham Railway Station", "STOP_ID": "vic:rail:ELT", "MODE": "METRO TRAIN", "transit_time_minutes": 86.1, "transit_distance_km": 26.68, "transit_time_minutes_nearest_tier": 85.0 }, "geometry": { "type": "Point", "coordinates": [ 145.14782202, -37.71354967 ] } },
{ "type": "Feature", "properties": { "STOP_NAME": "Eltham Station", "STOP_ID": "15332", "MODE": "METRO TRAIN", "transit_time_minutes": 86.8, "transit_distance_km": 26.73, "transit_time_minutes_nearest_tier": 85.0 }, "geometry": { "type": "Point", "coordinates": [ 145.14756177000001, -37.71397817 ] } },
{ "type": "Feature", "properties": { "STOP_NAME": "Epping Railway Station", "STOP_ID": "vic:rail:EPP", "MODE": "METRO TRAIN", "transit_time_minutes": 48.3, "transit_distance_km": 23.54, "transit_time_minutes_nearest_tier": 50.0 }, "geometry": { "type": "Point", "coordinates": [ 145.03107934, -37.65217784 ] } },
{ "type": "Feature", "properties": { "STOP_NAME": "Epping Station", "STOP_ID": "15366", "MODE": "METRO TRAIN", "transit_time_minutes": 49.4, "transit_distance_km": 23.64, "transit_time_minutes_nearest_tier": 50.0 }, "geometry": { "type": "Point", "coordinates": [ 145.03145275, -37.6522021 ] } },
{ "type": "Feature", "properties": { "STOP_NAME": "Ethel St", "STOP_ID": "vic:rail:TBY_EN1", "MODE": "METRO TRAIN", "transit_time_minutes": 27.4, "transit_distance_km": 11.17, "transit_time_minutes_nearest_tier": 25.0 }, "geometry": { "type": "Point", "coordinates": [ 144.9987639, -37.75507308 ] } },
{ "type": "Feature", "properties": { "STOP_NAME": "Fairfield Railway Station", "STOP_ID": "vic:rail:FFD", "MODE": "METRO TRAIN", "transit_time_minutes": 23.4, "transit_distance_km": 9.73, "transit_time_minutes_nearest_tier": 25.0 }, "geometry": { "type": "Point", "coordinates": [ 145.0169053, -37.77917126 ] } },
{ "type": "Feature", "properties": { "STOP_NAME": "Fairfield Station", "STOP_ID": "13748", "MODE": "METRO TRAIN", "transit_time_minutes": 23.4, "transit_distance_km": 9.73, "transit_time_minutes_nearest_tier": 25.0 }, "geometry": { "type": "Point", "coordinates": [ 145.01698306, -37.77923565 ] } },
{ "type": "Feature", "properties": { "STOP_NAME": "Falconer St", "STOP_ID": "vic:rail:RUS_EN3", "MODE": "METRO TRAIN", "transit_time_minutes": 22.5, "transit_distance_km": 7.95, "transit_time_minutes_nearest_tier": 20.0 }, "geometry": { "type": "Point", "coordinates": [ 144.991688759999988, -37.78290747 ] } },
{ "type": "Feature", "properties": { "STOP_NAME": "Fawkner Railway Station", "STOP_ID": "vic:rail:FAK", "MODE": "METRO TRAIN", "transit_time_minutes": 40.8, "transit_distance_km": 18.02, "transit_time_minutes_nearest_tier": 40.0 }, "geometry": { "type": "Point", "coordinates": [ 144.96054503, -37.71462129 ] } },
{ "type": "Feature", "properties": { "STOP_NAME": "Fawkner Station", "STOP_ID": "14302", "MODE": "METRO TRAIN", "transit_time_minutes": 38.2, "transit_distance_km": 17.94, "transit_time_minutes_nearest_tier": 40.0 }, "geometry": { "type": "Point", "coordinates": [ 144.96064458, -37.71512768 ] } },
{ "type": "Feature", "properties": { "STOP_NAME": "Ferntree Gully Railway Station", "STOP_ID": "vic:rail:FTG", "MODE": "METRO TRAIN", "transit_time_minutes": 55.5, "transit_distance_km": 37.6, "transit_time_minutes_nearest_tier": 55.0 }, "geometry": { "type": "Point", "coordinates": [ 145.295251259999986, -37.88169799 ] } },
{ "type": "Feature", "properties": { "STOP_NAME": "Ferntree Gully Station", "STOP_ID": "11247", "MODE": "METRO TRAIN", "transit_time_minutes": 53.4, "transit_distance_km": 37.55, "transit_time_minutes_nearest_tier": 55.0 }, "geometry": { "type": "Point", "coordinates": [ 145.29495246, -37.88134219 ] } },
{ "type": "Feature", "properties": { "STOP_NAME": "Flagstaff Railway Station", "STOP_ID": "vic:rail:FGS", "MODE": "METRO TRAIN", "transit_time_minutes": 7.3, "transit_distance_km": 1.57, "transit_time_minutes_nearest_tier": 5.0 }, "geometry": { "type": "Point", "coordinates": [ 144.955665110000012, -37.8119815 ] } },
{ "type": "Feature", "properties": { "STOP_NAME": "Flagstaff Station", "STOP_ID": "10920", "MODE": "METRO TRAIN", "transit_time_minutes": 6.7, "transit_distance_km": 1.53, "transit_time_minutes_nearest_tier": 5.0 }, "geometry": { "type": "Point", "coordinates": [ 144.95604277000001, -37.81187992 ] } },
{ "type": "Feature", "properties": { "STOP_NAME": "Flemington Bridge Railway Station", "STOP_ID": "vic:rail:FBD", "MODE": "METRO TRAIN", "transit_time_minutes": 21.2, "transit_distance_km": 8.79, "transit_time_minutes_nearest_tier": 20.0 }, "geometry": { "type": "Point", "coordinates": [ 144.93932328, -37.78813995 ] } },
{ "type": "Feature", "properties": { "STOP_NAME": "Flemington Bridge Station", "STOP_ID": "14320", "MODE": "METRO TRAIN", "transit_time_minutes": 21.2, "transit_distance_km": 8.79, "transit_time_minutes_nearest_tier": 20.0 }, "geometry": { "type": "Point", "coordinates": [ 144.93921738, -37.78827327 ] } },
{ "type": "Feature", "properties": { "STOP_NAME": "Flemington Racecourse Railway Station", "STOP_ID": "vic:rail:RCE", "MODE": "METRO TRAIN", "transit_time_minutes": 43.5, "transit_distance_km": 9.29, "transit_time_minutes_nearest_tier": 45.0 }, "geometry": { "type": "Point", "coordinates": [ 144.90757709, -37.78721073 ] } },
{ "type": "Feature", "properties": { "STOP_NAME": "Flemington Racecourse Station", "STOP_ID": "15524", "MODE": "METRO TRAIN", "transit_time_minutes": 39.3, "transit_distance_km": 9.27, "transit_time_minutes_nearest_tier": 40.0 }, "geometry": { "type": "Point", "coordinates": [ 144.90718782, -37.78772649 ] } },
{ "type": "Feature", "properties": { "STOP_NAME": "Frankston Railway Station", "STOP_ID": "vic:rail:FKN", "MODE": "METRO TRAIN", "transit_time_minutes": 68.0, "transit_distance_km": 44.73, "transit_time_minutes_nearest_tier": 70.0 }, "geometry": { "type": "Point", "coordinates": [ 145.126162279999988, -38.14299007 ] } },
{ "type": "Feature", "properties": { "STOP_NAME": "Frankston Station", "STOP_ID": "11220", "MODE": "METRO TRAIN", "transit_time_minutes": 64.0, "transit_distance_km": 44.44, "transit_time_minutes_nearest_tier": 65.0 }, "geometry": { "type": "Point", "coordinates": [ 145.126044650000011, -38.1426818 ] } },
{ "type": "Feature", "properties": { "STOP_NAME": "Gardenvale Railway Station", "STOP_ID": "vic:rail:GVE", "MODE": "METRO TRAIN", "transit_time_minutes": 30.4, "transit_distance_km": 14.09, "transit_time_minutes_nearest_tier": 30.0 }, "geometry": { "type": "Point", "coordinates": [ 145.00416843, -37.89669508 ] } },
{ "type": "Feature", "properties": { "STOP_NAME": "Gardenvale Station", "STOP_ID": "14281", "MODE": "METRO TRAIN", "transit_time_minutes": 30.4, "transit_distance_km": 14.09, "transit_time_minutes_nearest_tier": 30.0 }, "geometry": { "type": "Point", "coordinates": [ 145.00411355, -37.89662205 ] } },
{ "type": "Feature", "properties": { "STOP_NAME": "Gardiner Railway Station", "STOP_ID": "vic:rail:GAR", "MODE": "METRO TRAIN", "transit_time_minutes": 32.4, "transit_distance_km": 12.53, "transit_time_minutes_nearest_tier": 30.0 }, "geometry": { "type": "Point", "coordinates": [ 145.05165466, -37.85327908 ] } },
{ "type": "Feature", "properties": { "STOP_NAME": "Gardiner Station", "STOP_ID": "12269", "MODE": "METRO TRAIN", "transit_time_minutes": 28.4, "transit_distance_km": 12.27, "transit_time_minutes_nearest_tier": 30.0 }, "geometry": { "type": "Point", "coordinates": [ 145.05084666, -37.8528872 ] } },
{ "type": "Feature", "properties": { "STOP_NAME": "Ginifer Railway Station", "STOP_ID": "vic:rail:GIN", "MODE": "METRO TRAIN", "transit_time_minutes": 51.8, "transit_distance_km": 17.43, "transit_time_minutes_nearest_tier": 50.0 }, "geometry": { "type": "Point", "coordinates": [ 144.81135895, -37.76008529 ] } },
{ "type": "Feature", "properties": { "STOP_NAME": "Ginifer Station", "STOP_ID": "15362", "MODE": "METRO TRAIN", "transit_time_minutes": 49.0, "transit_distance_km": 17.33, "transit_time_minutes_nearest_tier": 50.0 }, "geometry": { "type": "Point", "coordinates": [ 144.810858599999989, -37.75934606 ] } },
{ "type": "Feature", "properties": { "STOP_NAME": "Gipps St", "STOP_ID": "vic:rail:CWD_EN2", "MODE": "METRO TRAIN", "transit_time_minutes": 16.7, "transit_distance_km": 5.48, "transit_time_minutes_nearest_tier": 15.0 }, "geometry": { "type": "Point", "coordinates": [ 144.99384502, -37.80477988 ] } },
{ "type": "Feature", "properties": { "STOP_NAME": "Glen Huntly Railway Station ", "STOP_ID": "vic:rail:GHY", "MODE": "METRO TRAIN", "transit_time_minutes": 32.5, "transit_distance_km": 14.15, "transit_time_minutes_nearest_tier": 30.0 }, "geometry": { "type": "Point", "coordinates": [ 145.04222285, -37.88971946 ] } },
{ "type": "Feature", "properties": { "STOP_NAME": "Glen Huntly Station", "STOP_ID": "14248", "MODE": "METRO TRAIN", "transit_time_minutes": 30.1, "transit_distance_km": 13.97, "transit_time_minutes_nearest_tier": 30.0 }, "geometry": { "type": "Point", "coordinates": [ 145.04194902, -37.89018352 ] } },
{ "type": "Feature", "properties": { "STOP_NAME": "Glen Iris Railway Station", "STOP_ID": "vic:rail:GIR", "MODE": "METRO TRAIN", "transit_time_minutes": 30.4, "transit_distance_km": 13.24, "transit_time_minutes_nearest_tier": 30.0 }, "geometry": { "type": "Point", "coordinates": [ 145.0582249, -37.85930842 ] } },
{ "type": "Feature", "properties": { "STOP_NAME": "Glen Iris Station", "STOP_ID": "5966", "MODE": "METRO TRAIN", "transit_time_minutes": 30.4, "transit_distance_km": 13.24, "transit_time_minutes_nearest_tier": 30.0 }, "geometry": { "type": "Point", "coordinates": [ 145.05811294, -37.85924349 ] } },
{ "type": "Feature", "properties": { "STOP_NAME": "Glen Waverley Railway Station", "STOP_ID": "vic:rail:GWY", "MODE": "METRO TRAIN", "transit_time_minutes": 46.4, "transit_distance_km": 23.83, "transit_time_minutes_nearest_tier": 45.0 }, "geometry": { "type": "Point", "coordinates": [ 145.162057549999986, -37.87950407 ] } },
{ "type": "Feature", "properties": { "STOP_NAME": "Glen Waverley Station", "STOP_ID": "12158", "MODE": "METRO TRAIN", "transit_time_minutes": 46.4, "transit_distance_km": 23.83, "transit_time_minutes_nearest_tier": 45.0 }, "geometry": { "type": "Point", "coordinates": [ 145.16210234, -37.87953181 ] } },
{ "type": "Feature", "properties": { "STOP_NAME": "Glenbervie Railway Station", "STOP_ID": "vic:rail:GBV", "MODE": "METRO TRAIN", "transit_time_minutes": 45.2, "transit_distance_km": 15.4, "transit_time_minutes_nearest_tier": 45.0 }, "geometry": { "type": "Point", "coordinates": [ 144.92093868, -37.74720985 ] } },
{ "type": "Feature", "properties": { "STOP_NAME": "Glenbervie Station", "STOP_ID": "15541", "MODE": "METRO TRAIN", "transit_time_minutes": 25.1, "transit_distance_km": 9.37, "transit_time_minutes_nearest_tier": 25.0 }, "geometry": { "type": "Point", "coordinates": [ 144.92079827, -37.74736057 ] } },
{ "type": "Feature", "properties": { "STOP_NAME": "Glenferrie Railway Station", "STOP_ID": "vic:rail:GFE", "MODE": "METRO TRAIN", "transit_time_minutes": 16.4, "transit_distance_km": 9.84, "transit_time_minutes_nearest_tier": 15.0 }, "geometry": { "type": "Point", "coordinates": [ 145.03643883, -37.82146682 ] } },
{ "type": "Feature", "properties": { "STOP_NAME": "Glenferrie Station", "STOP_ID": "12241", "MODE": "METRO TRAIN", "transit_time_minutes": 16.4, "transit_distance_km": 9.84, "transit_time_minutes_nearest_tier": 15.0 }, "geometry": { "type": "Point", "coordinates": [ 145.03654905, -37.82159483 ] } },
{ "type": "Feature", "properties": { "STOP_NAME": "Glenroy Railway Station", "STOP_ID": "vic:rail:GRY", "MODE": "METRO TRAIN", "transit_time_minutes": 38.9, "transit_distance_km": 14.75, "transit_time_minutes_nearest_tier": 40.0 }, "geometry": { "type": "Point", "coordinates": [ 144.9172204, -37.70453633 ] } },
{ "type": "Feature", "properties": { "STOP_NAME": "Glenroy Station", "STOP_ID": "15533", "MODE": "METRO TRAIN", "transit_time_minutes": 41.2, "transit_distance_km": 14.92, "transit_time_minutes_nearest_tier": 40.0 }, "geometry": { "type": "Point", "coordinates": [ 144.917584440000013, -37.70490324 ] } },
{ "type": "Feature", "properties": { "STOP_NAME": "Gowrie Railway Station", "STOP_ID": "vic:rail:GOW", "MODE": "METRO TRAIN", "transit_time_minutes": 40.8, "transit_distance_km": 19.55, "transit_time_minutes_nearest_tier": 40.0 }, "geometry": { "type": "Point", "coordinates": [ 144.95887432, -37.700678 ] } },
{ "type": "Feature", "properties": { "STOP_NAME": "Gowrie Station", "STOP_ID": "14300", "MODE": "METRO TRAIN", "transit_time_minutes": 40.2, "transit_distance_km": 19.51, "transit_time_minutes_nearest_tier": 40.0 }, "geometry": { "type": "Point", "coordinates": [ 144.958908799999989, -37.70107512 ] } },
{ "type": "Feature", "properties": { "STOP_NAME": "Greensborough Railway Station", "STOP_ID": "vic:rail:GRN", "MODE": "METRO TRAIN", "transit_time_minutes": 88.3, "transit_distance_km": 35.24, "transit_time_minutes_nearest_tier": 90.0 }, "geometry": { "type": "Point", "coordinates": [ 145.10793589, -37.70371477 ] } },
{ "type": "Feature", "properties": { "STOP_NAME": "Greensborough Station", "STOP_ID": "15329", "MODE": "METRO TRAIN", "transit_time_minutes": 87.8, "transit_distance_km": 34.74, "transit_time_minutes_nearest_tier": 90.0 }, "geometry": { "type": "Point", "coordinates": [ 145.10855091, -37.70450869 ] } },
{ "type": "Feature", "properties": { "STOP_NAME": "Hallam Railway Station", "STOP_ID": "vic:rail:HLM", "MODE": "METRO TRAIN", "transit_time_minutes": 100.5, "transit_distance_km": 41.43, "transit_time_minutes_nearest_tier": 100.0 }, "geometry": { "type": "Point", "coordinates": [ 145.269776799999988, -38.01774038 ] } },
{ "type": "Feature", "properties": { "STOP_NAME": "Hallam Station", "STOP_ID": "12182", "MODE": "METRO TRAIN", "transit_time_minutes": 100.0, "transit_distance_km": 41.41, "transit_time_minutes_nearest_tier": 100.0 }, "geometry": { "type": "Point", "coordinates": [ 145.269714990000011, -38.01794675 ] } },
{ "type": "Feature", "properties": { "STOP_NAME": "Hampton Railway Station", "STOP_ID": "vic:rail:HAM", "MODE": "METRO TRAIN", "transit_time_minutes": 41.0, "transit_distance_km": 18.27, "transit_time_minutes_nearest_tier": 40.0 }, "geometry": { "type": "Point", "coordinates": [ 145.00150445, -37.9379864 ] } },
{ "type": "Feature", "properties": { "STOP_NAME": "Hampton Station", "STOP_ID": "14272", "MODE": "METRO TRAIN", "transit_time_minutes": 41.0, "transit_distance_km": 18.27, "transit_time_minutes_nearest_tier": 40.0 }, "geometry": { "type": "Point", "coordinates": [ 145.00148746, -37.93819338 ] } },
{ "type": "Feature", "properties": { "STOP_NAME": "Hartington St", "STOP_ID": "vic:rail:NCE_EN3", "MODE": "METRO TRAIN", "transit_time_minutes": 25.9, "transit_distance_km": 9.57, "transit_time_minutes_nearest_tier": 25.0 }, "geometry": { "type": "Point", "coordinates": [ 144.99509784, -37.76978121 ] } },
{ "type": "Feature", "properties": { "STOP_NAME": "Hartwell Railway Station", "STOP_ID": "vic:rail:HWL", "MODE": "METRO TRAIN", "transit_time_minutes": 28.4, "transit_distance_km": 14.93, "transit_time_minutes_nearest_tier": 30.0 }, "geometry": { "type": "Point", "coordinates": [ 145.075559590000012, -37.84398457 ] } },
{ "type": "Feature", "properties": { "STOP_NAME": "Hartwell Station", "STOP_ID": "11201", "MODE": "METRO TRAIN", "transit_time_minutes": 28.4, "transit_distance_km": 14.93, "transit_time_minutes_nearest_tier": 30.0 }, "geometry": { "type": "Point", "coordinates": [ 145.07548359, -37.84384815 ] } },
{ "type": "Feature", "properties": { "STOP_NAME": "Hastings Railway Station", "STOP_ID": "vic:rail:HST", "MODE": "METRO TRAIN", "transit_time_minutes": 112.0, "transit_distance_km": 65.6, "transit_time_minutes_nearest_tier": 110.0 }, "geometry": { "type": "Point", "coordinates": [ 145.18597988, -38.30565853 ] } },
{ "type": "Feature", "properties": { "STOP_NAME": "Hastings Station", "STOP_ID": "3580", "MODE": "METRO TRAIN", "transit_time_minutes": 112.0, "transit_distance_km": 65.6, "transit_time_minutes_nearest_tier": 110.0 }, "geometry": { "type": "Point", "coordinates": [ 145.185982349999989, -38.30555944 ] } },
{ "type": "Feature", "properties": { "STOP_NAME": "Hawksburn Railway Station", "STOP_ID": "vic:rail:HKN", "MODE": "METRO TRAIN", "transit_time_minutes": 18.5, "transit_distance_km": 7.26, "transit_time_minutes_nearest_tier": 20.0 }, "geometry": { "type": "Point", "coordinates": [ 145.002142060000011, -37.84459087 ] } },
{ "type": "Feature", "properties": { "STOP_NAME": "Hawksburn Station", "STOP_ID": "14267", "MODE": "METRO TRAIN", "transit_time_minutes": 17.1, "transit_distance_km": 7.16, "transit_time_minutes_nearest_tier": 15.0 }, "geometry": { "type": "Point", "coordinates": [ 145.001808759999989, -37.84472941 ] } },
{ "type": "Feature", "properties": { "STOP_NAME": "Hawkstowe Pde", "STOP_ID": "vic:rail:HWS_EN1", "MODE": "METRO TRAIN", "transit_time_minutes": 57.5, "transit_distance_km": 31.34, "transit_time_minutes_nearest_tier": 60.0 }, "geometry": { "type": "Point", "coordinates": [ 145.097421520000012, -37.62244521 ] } },
{ "type": "Feature", "properties": { "STOP_NAME": "Hawkstowe Railway Station", "STOP_ID": "vic:rail:HWS", "MODE": "METRO TRAIN", "transit_time_minutes": 56.4, "transit_distance_km": 31.29, "transit_time_minutes_nearest_tier": 55.0 }, "geometry": { "type": "Point", "coordinates": [ 145.09729471, -37.62297489 ] } },
{ "type": "Feature", "properties": { "STOP_NAME": "Hawkstowe Station", "STOP_ID": "26511", "MODE": "METRO TRAIN", "transit_time_minutes": 56.4, "transit_distance_km": 31.29, "transit_time_minutes_nearest_tier": 55.0 }, "geometry": { "type": "Point", "coordinates": [ 145.09743269, -37.622896 ] } },
{ "type": "Feature", "properties": { "STOP_NAME": "Hawthorn Railway Station", "STOP_ID": "vic:rail:HAW", "MODE": "METRO TRAIN", "transit_time_minutes": 20.5, "transit_distance_km": 8.88, "transit_time_minutes_nearest_tier": 20.0 }, "geometry": { "type": "Point", "coordinates": [ 145.02289866000001, -37.82182601 ] } },
{ "type": "Feature", "properties": { "STOP_NAME": "Hawthorn Station", "STOP_ID": "12244", "MODE": "METRO TRAIN", "transit_time_minutes": 15.4, "transit_distance_km": 8.59, "transit_time_minutes_nearest_tier": 15.0 }, "geometry": { "type": "Point", "coordinates": [ 145.02300573, -37.82207113 ] } },
{ "type": "Feature", "properties": { "STOP_NAME": "Heatherdale Railway Station", "STOP_ID": "vic:rail:HTD", "MODE": "METRO TRAIN", "transit_time_minutes": 40.0, "transit_distance_km": 26.25, "transit_time_minutes_nearest_tier": 40.0 }, "geometry": { "type": "Point", "coordinates": [ 145.21397044, -37.8188232 ] } },
{ "type": "Feature", "properties": { "STOP_NAME": "Heatherdale Station", "STOP_ID": "12233", "MODE": "METRO TRAIN", "transit_time_minutes": 37.4, "transit_distance_km": 26.09, "transit_time_minutes_nearest_tier": 35.0 }, "geometry": { "type": "Point", "coordinates": [ 145.21458608, -37.81873341 ] } },
{ "type": "Feature", "properties": { "STOP_NAME": "Heathmont Railway Station", "STOP_ID": "vic:rail:HMT", "MODE": "METRO TRAIN", "transit_time_minutes": 42.4, "transit_distance_km": 29.8, "transit_time_minutes_nearest_tier": 40.0 }, "geometry": { "type": "Point", "coordinates": [ 145.24455538, -37.82832227 ] } },
{ "type": "Feature", "properties": { "STOP_NAME": "Heathmont Station", "STOP_ID": "11412", "MODE": "METRO TRAIN", "transit_time_minutes": 42.4, "transit_distance_km": 29.8, "transit_time_minutes_nearest_tier": 40.0 }, "geometry": { "type": "Point", "coordinates": [ 145.24456268, -37.82849361 ] } },
{ "type": "Feature", "properties": { "STOP_NAME": "Heidelberg Railway Station", "STOP_ID": "vic:rail:HDB", "MODE": "METRO TRAIN", "transit_time_minutes": 35.4, "transit_distance_km": 14.59, "transit_time_minutes_nearest_tier": 35.0 }, "geometry": { "type": "Point", "coordinates": [ 145.06068552, -37.75707293 ] } },
{ "type": "Feature", "properties": { "STOP_NAME": "Heidelberg Station", "STOP_ID": "13758", "MODE": "METRO TRAIN", "transit_time_minutes": 35.4, "transit_distance_km": 14.59, "transit_time_minutes_nearest_tier": 35.0 }, "geometry": { "type": "Point", "coordinates": [ 145.06084296, -37.7571296 ] } },
{ "type": "Feature", "properties": { "STOP_NAME": "Herbert St", "STOP_ID": "vic:rail:NCE_EN1", "MODE": "METRO TRAIN", "transit_time_minutes": 25.4, "transit_distance_km": 9.55, "transit_time_minutes_nearest_tier": 25.0 }, "geometry": { "type": "Point", "coordinates": [ 144.99570436, -37.76960228 ] } },
{ "type": "Feature", "properties": { "STOP_NAME": "Heyington Railway Station", "STOP_ID": "vic:rail:HEY", "MODE": "METRO TRAIN", "transit_time_minutes": 22.4, "transit_distance_km": 8.84, "transit_time_minutes_nearest_tier": 20.0 }, "geometry": { "type": "Point", "coordinates": [ 145.02264711, -37.83465462 ] } },
{ "type": "Feature", "properties": { "STOP_NAME": "Heyington Station", "STOP_ID": "12263", "MODE": "METRO TRAIN", "transit_time_minutes": 22.4, "transit_distance_km": 8.84, "transit_time_minutes_nearest_tier": 20.0 }, "geometry": { "type": "Point", "coordinates": [ 145.02256785, -37.83464428 ] } },
{ "type": "Feature", "properties": { "STOP_NAME": "High St", "STOP_ID": "vic:rail:KPK_EN2", "MODE": "METRO TRAIN", "transit_time_minutes": 40.4, "transit_distance_km": 17.93, "transit_time_minutes_nearest_tier": 40.0 }, "geometry": { "type": "Point", "coordinates": [ 145.011687060000014, -37.69586713 ] } },
{ "type": "Feature", "properties": { "STOP_NAME": "Highett Railway Station", "STOP_ID": "vic:rail:HIG", "MODE": "METRO TRAIN", "transit_time_minutes": 42.4, "transit_distance_km": 20.66, "transit_time_minutes_nearest_tier": 40.0 }, "geometry": { "type": "Point", "coordinates": [ 145.0418718, -37.948425 ] } },
{ "type": "Feature", "properties": { "STOP_NAME": "Highett Station", "STOP_ID": "11471", "MODE": "METRO TRAIN", "transit_time_minutes": 42.0, "transit_distance_km": 20.56, "transit_time_minutes_nearest_tier": 40.0 }, "geometry": { "type": "Point", "coordinates": [ 145.04151832, -37.9480226 ] } },
{ "type": "Feature", "properties": { "STOP_NAME": "Hoddle St", "STOP_ID": "vic:rail:CHL_EN2", "MODE": "METRO TRAIN", "transit_time_minutes": 19.2, "transit_distance_km": 7.17, "transit_time_minutes_nearest_tier": 20.0 }, "geometry": { "type": "Point", "coordinates": [ 144.99522496, -37.78860913 ] } },
{ "type": "Feature", "properties": { "STOP_NAME": "Holmesglen Railway Station", "STOP_ID": "vic:rail:HOL", "MODE": "METRO TRAIN", "transit_time_minutes": 44.7, "transit_distance_km": 17.89, "transit_time_minutes_nearest_tier": 45.0 }, "geometry": { "type": "Point", "coordinates": [ 145.09066203, -37.87440222 ] } },
{ "type": "Feature", "properties": { "STOP_NAME": "Holmesglen Station", "STOP_ID": "8763", "MODE": "METRO TRAIN", "transit_time_minutes": 35.4, "transit_distance_km": 16.17, "transit_time_minutes_nearest_tier": 35.0 }, "geometry": { "type": "Point", "coordinates": [ 145.089963, -37.87461617 ] } },
{ "type": "Feature", "properties": { "STOP_NAME": "Hoppers Crossing Railway Station", "STOP_ID": "vic:rail:HCG", "MODE": "METRO TRAIN", "transit_time_minutes": 38.0, "transit_distance_km": 28.11, "transit_time_minutes_nearest_tier": 40.0 }, "geometry": { "type": "Point", "coordinates": [ 144.70074704000001, -37.88338025 ] } },
{ "type": "Feature", "properties": { "STOP_NAME": "Hoppers Crossing Station", "STOP_ID": "13734", "MODE": "METRO TRAIN", "transit_time_minutes": 33.0, "transit_distance_km": 27.86, "transit_time_minutes_nearest_tier": 35.0 }, "geometry": { "type": "Point", "coordinates": [ 144.7016681, -37.88301076 ] } },
{ "type": "Feature", "properties": { "STOP_NAME": "Hughesdale Railway Station", "STOP_ID": "vic:rail:HUG", "MODE": "METRO TRAIN", "transit_time_minutes": 58.9, "transit_distance_km": 17.01, "transit_time_minutes_nearest_tier": 60.0 }, "geometry": { "type": "Point", "coordinates": [ 145.07618607, -37.89419074 ] } },
{ "type": "Feature", "properties": { "STOP_NAME": "Hughesdale Station", "STOP_ID": "13725", "MODE": "METRO TRAIN", "transit_time_minutes": 58.8, "transit_distance_km": 17.01, "transit_time_minutes_nearest_tier": 60.0 }, "geometry": { "type": "Point", "coordinates": [ 145.07576971, -37.89402172 ] } },
{ "type": "Feature", "properties": { "STOP_NAME": "Huntingdale Railway Station", "STOP_ID": "vic:rail:HUN", "MODE": "METRO TRAIN", "transit_time_minutes": 62.5, "transit_distance_km": 23.02, "transit_time_minutes_nearest_tier": 60.0 }, "geometry": { "type": "Point", "coordinates": [ 145.10236432, -37.91101734 ] } },
{ "type": "Feature", "properties": { "STOP_NAME": "Huntingdale Station", "STOP_ID": "13720", "MODE": "METRO TRAIN", "transit_time_minutes": 63.1, "transit_distance_km": 23.12, "transit_time_minutes_nearest_tier": 65.0 }, "geometry": { "type": "Point", "coordinates": [ 145.10239704, -37.91107194 ] } },
{ "type": "Feature", "properties": { "STOP_NAME": "Hurstbridge Railway Station", "STOP_ID": "vic:rail:HBE", "MODE": "METRO TRAIN", "transit_time_minutes": 93.3, "transit_distance_km": 38.41, "transit_time_minutes_nearest_tier": 95.0 }, "geometry": { "type": "Point", "coordinates": [ 145.19201689, -37.63939817 ] } },
{ "type": "Feature", "properties": { "STOP_NAME": "Hurstbridge Station", "STOP_ID": "15337", "MODE": "METRO TRAIN", "transit_time_minutes": 93.7, "transit_distance_km": 38.42, "transit_time_minutes_nearest_tier": 95.0 }, "geometry": { "type": "Point", "coordinates": [ 145.191746060000014, -37.63981759 ] } },
{ "type": "Feature", "properties": { "STOP_NAME": "Ivanhoe Railway Station", "STOP_ID": "vic:rail:IVA", "MODE": "METRO TRAIN", "transit_time_minutes": 29.4, "transit_distance_km": 12.69, "transit_time_minutes_nearest_tier": 30.0 }, "geometry": { "type": "Point", "coordinates": [ 145.04542519, -37.76889674 ] } },
{ "type": "Feature", "properties": { "STOP_NAME": "Ivanhoe Station", "STOP_ID": "13754", "MODE": "METRO TRAIN", "transit_time_minutes": 29.4, "transit_distance_km": 12.69, "transit_time_minutes_nearest_tier": 30.0 }, "geometry": { "type": "Point", "coordinates": [ 145.04543511, -37.76895098 ] } },
{ "type": "Feature", "properties": { "STOP_NAME": "Jacana Railway Station", "STOP_ID": "vic:rail:JAC", "MODE": "METRO TRAIN", "transit_time_minutes": 40.7, "transit_distance_km": 15.85, "transit_time_minutes_nearest_tier": 40.0 }, "geometry": { "type": "Point", "coordinates": [ 144.91585052, -37.69513079 ] } },
{ "type": "Feature", "properties": { "STOP_NAME": "Jacana Station", "STOP_ID": "15531", "MODE": "METRO TRAIN", "transit_time_minutes": 37.0, "transit_distance_km": 15.69, "transit_time_minutes_nearest_tier": 35.0 }, "geometry": { "type": "Point", "coordinates": [ 144.91583338, -37.69533775 ] } },
{ "type": "Feature", "properties": { "STOP_NAME": "Jewell Railway Station", "STOP_ID": "vic:rail:JWL", "MODE": "METRO TRAIN", "transit_time_minutes": 25.2, "transit_distance_km": 11.25, "transit_time_minutes_nearest_tier": 25.0 }, "geometry": { "type": "Point", "coordinates": [ 144.95871691, -37.77498702 ] } },
{ "type": "Feature", "properties": { "STOP_NAME": "Jewell Station", "STOP_ID": "14316", "MODE": "METRO TRAIN", "transit_time_minutes": 25.2, "transit_distance_km": 11.25, "transit_time_minutes_nearest_tier": 25.0 }, "geometry": { "type": "Point", "coordinates": [ 144.95879684, -37.77497038 ] } },
{ "type": "Feature", "properties": { "STOP_NAME": "Jika Pl", "STOP_ID": "vic:rail:WRM_EN2", "MODE": "METRO TRAIN", "transit_time_minutes": 12.2, "transit_distance_km": 4.24, "transit_time_minutes_nearest_tier": 10.0 }, "geometry": { "type": "Point", "coordinates": [ 144.991312169999986, -37.81483894 ] } },
{ "type": "Feature", "properties": { "STOP_NAME": "John St", "STOP_ID": "vic:rail:CHL_EN1", "MODE": "METRO TRAIN", "transit_time_minutes": 19.5, "transit_distance_km": 7.18, "transit_time_minutes_nearest_tier": 20.0 }, "geometry": { "type": "Point", "coordinates": [ 144.99564809, -37.78849918 ] } },
{ "type": "Feature", "properties": { "STOP_NAME": "Johnston St", "STOP_ID": "vic:rail:VPK_EN2", "MODE": "METRO TRAIN", "transit_time_minutes": 17.6, "transit_distance_km": 6.06, "transit_time_minutes_nearest_tier": 20.0 }, "geometry": { "type": "Point", "coordinates": [ 144.99442399, -37.79975214 ] } },
{ "type": "Feature", "properties": { "STOP_NAME": "Jolimont-MCG Railway Station", "STOP_ID": "vic:rail:JLI", "MODE": "METRO TRAIN", "transit_time_minutes": 9.4, "transit_distance_km": 3.48, "transit_time_minutes_nearest_tier": 10.0 }, "geometry": { "type": "Point", "coordinates": [ 144.98409834, -37.81652702 ] } },
{ "type": "Feature", "properties": { "STOP_NAME": "Jolimont-MCG Station", "STOP_ID": "14340", "MODE": "METRO TRAIN", "transit_time_minutes": 9.4, "transit_distance_km": 3.48, "transit_time_minutes_nearest_tier": 10.0 }, "geometry": { "type": "Point", "coordinates": [ 144.984074889999988, -37.81655366 ] } },
{ "type": "Feature", "properties": { "STOP_NAME": "Jordanville Railway Station", "STOP_ID": "vic:rail:JOR", "MODE": "METRO TRAIN", "transit_time_minutes": 40.9, "transit_distance_km": 19.41, "transit_time_minutes_nearest_tier": 40.0 }, "geometry": { "type": "Point", "coordinates": [ 145.11209016, -37.87360339 ] } },
{ "type": "Feature", "properties": { "STOP_NAME": "Jordanville Station", "STOP_ID": "10117", "MODE": "METRO TRAIN", "transit_time_minutes": 37.4, "transit_distance_km": 18.18, "transit_time_minutes_nearest_tier": 35.0 }, "geometry": { "type": "Point", "coordinates": [ 145.112472630000013, -37.87376273 ] } },
{ "type": "Feature", "properties": { "STOP_NAME": "Kananook Railway Station", "STOP_ID": "vic:rail:KAN", "MODE": "METRO TRAIN", "transit_time_minutes": 61.0, "transit_distance_km": 42.0, "transit_time_minutes_nearest_tier": 60.0 }, "geometry": { "type": "Point", "coordinates": [ 145.135374930000012, -38.12175231 ] } },
{ "type": "Feature", "properties": { "STOP_NAME": "Kananook Station", "STOP_ID": "11222", "MODE": "METRO TRAIN", "transit_time_minutes": 61.0, "transit_distance_km": 42.0, "transit_time_minutes_nearest_tier": 60.0 }, "geometry": { "type": "Point", "coordinates": [ 145.13533024, -38.12171555 ] } },
{ "type": "Feature", "properties": { "STOP_NAME": "Keilor Plains Railway Station", "STOP_ID": "vic:rail:KPL", "MODE": "METRO TRAIN", "transit_time_minutes": 56.1, "transit_distance_km": 21.03, "transit_time_minutes_nearest_tier": 55.0 }, "geometry": { "type": "Point", "coordinates": [ 144.793738069999989, -37.72927934 ] } },
{ "type": "Feature", "properties": { "STOP_NAME": "Keilor Plains Station", "STOP_ID": "15358", "MODE": "METRO TRAIN", "transit_time_minutes": 54.0, "transit_distance_km": 20.98, "transit_time_minutes_nearest_tier": 55.0 }, "geometry": { "type": "Point", "coordinates": [ 144.793886930000014, -37.72961556 ] } },
{ "type": "Feature", "properties": { "STOP_NAME": "Kensington Railway Station", "STOP_ID": "vic:rail:KEN", "MODE": "METRO TRAIN", "transit_time_minutes": 21.2, "transit_distance_km": 8.34, "transit_time_minutes_nearest_tier": 20.0 }, "geometry": { "type": "Point", "coordinates": [ 144.93052444, -37.79378022 ] } },
{ "type": "Feature", "properties": { "STOP_NAME": "Kensington Station", "STOP_ID": "15552", "MODE": "METRO TRAIN", "transit_time_minutes": 21.2, "transit_distance_km": 8.34, "transit_time_minutes_nearest_tier": 20.0 }, "geometry": { "type": "Point", "coordinates": [ 144.93058245, -37.79373618 ] } },
{ "type": "Feature", "properties": { "STOP_NAME": "Keon Park Railway Station", "STOP_ID": "vic:rail:KPK", "MODE": "METRO TRAIN", "transit_time_minutes": 42.9, "transit_distance_km": 18.06, "transit_time_minutes_nearest_tier": 45.0 }, "geometry": { "type": "Point", "coordinates": [ 145.01188382, -37.69487012 ] } },
{ "type": "Feature", "properties": { "STOP_NAME": "Keon Park Station", "STOP_ID": "15371", "MODE": "METRO TRAIN", "transit_time_minutes": 40.4, "transit_distance_km": 17.93, "transit_time_minutes_nearest_tier": 40.0 }, "geometry": { "type": "Point", "coordinates": [ 145.011758210000011, -37.69575118 ] } },
{ "type": "Feature", "properties": { "STOP_NAME": "Keon Pde", "STOP_ID": "vic:rail:KPK_EN1", "MODE": "METRO TRAIN", "transit_time_minutes": 40.4, "transit_distance_km": 17.93, "transit_time_minutes_nearest_tier": 40.0 }, "geometry": { "type": "Point", "coordinates": [ 145.01174107, -37.69554361 ] } },
{ "type": "Feature", "properties": { "STOP_NAME": "Kiss & Ride", "STOP_ID": "vic:rail:KPK_KR1", "MODE": "METRO TRAIN", "transit_time_minutes": 42.0, "transit_distance_km": 18.01, "transit_time_minutes_nearest_tier": 40.0 }, "geometry": { "type": "Point", "coordinates": [ 145.011420820000012, -37.69649348 ] } },
{ "type": "Feature", "properties": { "STOP_NAME": "Kiss & Ride 1", "STOP_ID": "vic:rail:PRE_KR1", "MODE": "METRO TRAIN", "transit_time_minutes": 31.9, "transit_distance_km": 13.06, "transit_time_minutes_nearest_tier": 30.0 }, "geometry": { "type": "Point", "coordinates": [ 145.00032595, -37.73921163 ] } },
{ "type": "Feature", "properties": { "STOP_NAME": "Kooyong Railway Station", "STOP_ID": "vic:rail:KYG", "MODE": "METRO TRAIN", "transit_time_minutes": 24.4, "transit_distance_km": 10.05, "transit_time_minutes_nearest_tier": 25.0 }, "geometry": { "type": "Point", "coordinates": [ 145.033551609999989, -37.83992894 ] } },
{ "type": "Feature", "properties": { "STOP_NAME": "Kooyong Station", "STOP_ID": "12265", "MODE": "METRO TRAIN", "transit_time_minutes": 24.4, "transit_distance_km": 10.05, "transit_time_minutes_nearest_tier": 25.0 }, "geometry": { "type": "Point", "coordinates": [ 145.03353905, -37.83997379 ] } },
{ "type": "Feature", "properties": { "STOP_NAME": "Laburnum Railway Station", "STOP_ID": "vic:rail:LAB", "MODE": "METRO TRAIN", "transit_time_minutes": 26.4, "transit_distance_km": 19.53, "transit_time_minutes_nearest_tier": 25.0 }, "geometry": { "type": "Point", "coordinates": [ 145.14070271, -37.82078023 ] } },
{ "type": "Feature", "properties": { "STOP_NAME": "Laburnum Station", "STOP_ID": "12224", "MODE": "METRO TRAIN", "transit_time_minutes": 26.4, "transit_distance_km": 19.53, "transit_time_minutes_nearest_tier": 25.0 }, "geometry": { "type": "Point", "coordinates": [ 145.14082011, -37.82062888 ] } },
{ "type": "Feature", "properties": { "STOP_NAME": "Lalor Railway Station", "STOP_ID": "vic:rail:LAL", "MODE": "METRO TRAIN", "transit_time_minutes": 44.4, "transit_distance_km": 21.29, "transit_time_minutes_nearest_tier": 45.0 }, "geometry": { "type": "Point", "coordinates": [ 145.017193170000013, -37.66585075 ] } },
{ "type": "Feature", "properties": { "STOP_NAME": "Lalor Station", "STOP_ID": "15368", "MODE": "METRO TRAIN", "transit_time_minutes": 44.4, "transit_distance_km": 21.29, "transit_time_minutes_nearest_tier": 45.0 }, "geometry": { "type": "Point", "coordinates": [ 145.01734, -37.66587124 ] } },
{ "type": "Feature", "properties": { "STOP_NAME": "Laverton Railway Station", "STOP_ID": "vic:rail:LAV", "MODE": "METRO TRAIN", "transit_time_minutes": 25.1, "transit_distance_km": 21.27, "transit_time_minutes_nearest_tier": 25.0 }, "geometry": { "type": "Point", "coordinates": [ 144.77261667, -37.86369404 ] } },
{ "type": "Feature", "properties": { "STOP_NAME": "Laverton Station", "STOP_ID": "13736", "MODE": "METRO TRAIN", "transit_time_minutes": 25.1, "transit_distance_km": 21.27, "transit_time_minutes_nearest_tier": 25.0 }, "geometry": { "type": "Point", "coordinates": [ 144.77284848, -37.86354523 ] } },
{ "type": "Feature", "properties": { "STOP_NAME": "Leawarra Railway Station", "STOP_ID": "vic:rail:LWA", "MODE": "METRO TRAIN", "transit_time_minutes": 95.6, "transit_distance_km": 46.82, "transit_time_minutes_nearest_tier": 95.0 }, "geometry": { "type": "Point", "coordinates": [ 145.13953396, -38.152034 ] } },
{ "type": "Feature", "properties": { "STOP_NAME": "Leawarra Station", "STOP_ID": "7878", "MODE": "METRO TRAIN", "transit_time_minutes": 95.7, "transit_distance_km": 46.83, "transit_time_minutes_nearest_tier": 95.0 }, "geometry": { "type": "Point", "coordinates": [ 145.13960172, -38.15206211 ] } },
{ "type": "Feature", "properties": { "STOP_NAME": "Lilydale Railway Station", "STOP_ID": "vic:rail:LIL", "MODE": "METRO TRAIN", "transit_time_minutes": 60.4, "transit_distance_km": 41.05, "transit_time_minutes_nearest_tier": 60.0 }, "geometry": { "type": "Point", "coordinates": [ 145.345822270000014, -37.75721264 ] } },
{ "type": "Feature", "properties": { "STOP_NAME": "Lilydale Station", "STOP_ID": "12164", "MODE": "METRO TRAIN", "transit_time_minutes": 56.4, "transit_distance_km": 40.78, "transit_time_minutes_nearest_tier": 55.0 }, "geometry": { "type": "Point", "coordinates": [ 145.3479169, -37.75541252 ] } },
{ "type": "Feature", "properties": { "STOP_NAME": "Lulie St", "STOP_ID": "vic:rail:VPK_EN1", "MODE": "METRO TRAIN", "transit_time_minutes": 16.6, "transit_distance_km": 6.01, "transit_time_minutes_nearest_tier": 15.0 }, "geometry": { "type": "Point", "coordinates": [ 144.994595690000011, -37.79886289 ] } },
{ "type": "Feature", "properties": { "STOP_NAME": "Lynbrook Railway Station", "STOP_ID": "vic:rail:LBK", "MODE": "METRO TRAIN", "transit_time_minutes": 107.4, "transit_distance_km": 53.84, "transit_time_minutes_nearest_tier": 105.0 }, "geometry": { "type": "Point", "coordinates": [ 145.249252109999986, -38.05734985 ] } },
{ "type": "Feature", "properties": { "STOP_NAME": "Lynbrook Station", "STOP_ID": "26514", "MODE": "METRO TRAIN", "transit_time_minutes": 107.4, "transit_distance_km": 53.84, "transit_time_minutes_nearest_tier": 105.0 }, "geometry": { "type": "Point", "coordinates": [ 145.249233190000012, -38.05718735 ] } },
{ "type": "Feature", "properties": { "STOP_NAME": "Macartney St", "STOP_ID": "vic:rail:RUT_EN1", "MODE": "METRO TRAIN", "transit_time_minutes": 39.1, "transit_distance_km": 16.62, "transit_time_minutes_nearest_tier": 40.0 }, "geometry": { "type": "Point", "coordinates": [ 145.00982249, -37.70748815 ] } },
{ "type": "Feature", "properties": { "STOP_NAME": "Macaulay Railway Station", "STOP_ID": "vic:rail:MAC", "MODE": "METRO TRAIN", "transit_time_minutes": 20.2, "transit_distance_km": 8.03, "transit_time_minutes_nearest_tier": 20.0 }, "geometry": { "type": "Point", "coordinates": [ 144.93616633, -37.79426673 ] } },
{ "type": "Feature", "properties": { "STOP_NAME": "Macaulay Station", "STOP_ID": "14322", "MODE": "METRO TRAIN", "transit_time_minutes": 20.2, "transit_distance_km": 8.03, "transit_time_minutes_nearest_tier": 20.0 }, "geometry": { "type": "Point", "coordinates": [ 144.93622158, -37.79432177 ] } },
{ "type": "Feature", "properties": { "STOP_NAME": "Macleod Railway Station", "STOP_ID": "vic:rail:MCD", "MODE": "METRO TRAIN", "transit_time_minutes": 67.5, "transit_distance_km": 19.28, "transit_time_minutes_nearest_tier": 70.0 }, "geometry": { "type": "Point", "coordinates": [ 145.06914332, -37.7260123 ] } },
{ "type": "Feature", "properties": { "STOP_NAME": "Macleod Station", "STOP_ID": "15324", "MODE": "METRO TRAIN", "transit_time_minutes": 68.4, "transit_distance_km": 19.36, "transit_time_minutes_nearest_tier": 70.0 }, "geometry": { "type": "Point", "coordinates": [ 145.06895986, -37.72652298 ] } },
{ "type": "Feature", "properties": { "STOP_NAME": "Malvern Railway Station", "STOP_ID": "vic:rail:MAL", "MODE": "METRO TRAIN", "transit_time_minutes": 23.1, "transit_distance_km": 10.64, "transit_time_minutes_nearest_tier": 25.0 }, "geometry": { "type": "Point", "coordinates": [ 145.02929394, -37.8662533 ] } },
{ "type": "Feature", "properties": { "STOP_NAME": "Malvern Station", "STOP_ID": "14255", "MODE": "METRO TRAIN", "transit_time_minutes": 23.1, "transit_distance_km": 10.64, "transit_time_minutes_nearest_tier": 25.0 }, "geometry": { "type": "Point", "coordinates": [ 145.02927778, -37.86643326 ] } },
{ "type": "Feature", "properties": { "STOP_NAME": "McKinnon Railway Station", "STOP_ID": "vic:rail:MCK", "MODE": "METRO TRAIN", "transit_time_minutes": 37.6, "transit_distance_km": 16.52, "transit_time_minutes_nearest_tier": 40.0 }, "geometry": { "type": "Point", "coordinates": [ 145.03829897, -37.91030903 ] } },
{ "type": "Feature", "properties": { "STOP_NAME": "McKinnon Station", "STOP_ID": "14242", "MODE": "METRO TRAIN", "transit_time_minutes": 34.0, "transit_distance_km": 16.36, "transit_time_minutes_nearest_tier": 35.0 }, "geometry": { "type": "Point", "coordinates": [ 145.03800637, -37.91147568 ] } },
{ "type": "Feature", "properties": { "STOP_NAME": "Melbourne Central Railway Station", "STOP_ID": "vic:rail:MCE", "MODE": "METRO TRAIN", "transit_time_minutes": 5.4, "transit_distance_km": 2.04, "transit_time_minutes_nearest_tier": 5.0 }, "geometry": { "type": "Point", "coordinates": [ 144.96260489, -37.80993896 ] } },
{ "type": "Feature", "properties": { "STOP_NAME": "Melbourne Central Station", "STOP_ID": "10922", "MODE": "METRO TRAIN", "transit_time_minutes": 5.4, "transit_distance_km": 2.04, "transit_time_minutes_nearest_tier": 5.0 }, "geometry": { "type": "Point", "coordinates": [ 144.96254713, -37.80997401 ] } },
{ "type": "Feature", "properties": { "STOP_NAME": "Mentone Railway Station", "STOP_ID": "vic:rail:MEN", "MODE": "METRO TRAIN", "transit_time_minutes": 41.4, "transit_distance_km": 25.21, "transit_time_minutes_nearest_tier": 40.0 }, "geometry": { "type": "Point", "coordinates": [ 145.065802319999989, -37.98277704 ] } },
{ "type": "Feature", "properties": { "STOP_NAME": "Mentone Station", "STOP_ID": "11240", "MODE": "METRO TRAIN", "transit_time_minutes": 39.0, "transit_distance_km": 25.09, "transit_time_minutes_nearest_tier": 40.0 }, "geometry": { "type": "Point", "coordinates": [ 145.06631522, -37.98362356 ] } },
{ "type": "Feature", "properties": { "STOP_NAME": "Merinda Park Railway Station", "STOP_ID": "vic:rail:MPK", "MODE": "METRO TRAIN", "transit_time_minutes": 75.7, "transit_distance_km": 42.71, "transit_time_minutes_nearest_tier": 75.0 }, "geometry": { "type": "Point", "coordinates": [ 145.26351137, -38.07900048 ] } },
{ "type": "Feature", "properties": { "STOP_NAME": "Merinda Park Station", "STOP_ID": "12186", "MODE": "METRO TRAIN", "transit_time_minutes": 75.7, "transit_distance_km": 42.71, "transit_time_minutes_nearest_tier": 75.0 }, "geometry": { "type": "Point", "coordinates": [ 145.26336215, -38.07904333 ] } },
{ "type": "Feature", "properties": { "STOP_NAME": "Merlynston Railway Station", "STOP_ID": "vic:rail:MYN", "MODE": "METRO TRAIN", "transit_time_minutes": 46.7, "transit_distance_km": 17.93, "transit_time_minutes_nearest_tier": 45.0 }, "geometry": { "type": "Point", "coordinates": [ 144.96131355, -37.72093389 ] } },
{ "type": "Feature", "properties": { "STOP_NAME": "Merlynston Station", "STOP_ID": "14304", "MODE": "METRO TRAIN", "transit_time_minutes": 36.2, "transit_distance_km": 17.23, "transit_time_minutes_nearest_tier": 35.0 }, "geometry": { "type": "Point", "coordinates": [ 144.96140054, -37.72148512 ] } },
{ "type": "Feature", "properties": { "STOP_NAME": "Mernda Railway Station", "STOP_ID": "vic:rail:MDD", "MODE": "METRO TRAIN", "transit_time_minutes": 59.4, "transit_distance_km": 33.6, "transit_time_minutes_nearest_tier": 60.0 }, "geometry": { "type": "Point", "coordinates": [ 145.10095293, -37.60254907 ] } },
{ "type": "Feature", "properties": { "STOP_NAME": "Mernda Station", "STOP_ID": "26517", "MODE": "METRO TRAIN", "transit_time_minutes": 59.4, "transit_distance_km": 33.6, "transit_time_minutes_nearest_tier": 60.0 }, "geometry": { "type": "Point", "coordinates": [ 145.100970210000014, -37.60231503 ] } },
{ "type": "Feature", "properties": { "STOP_NAME": "Merri Railway Station", "STOP_ID": "vic:rail:MER", "MODE": "METRO TRAIN", "transit_time_minutes": 21.4, "transit_distance_km": 8.59, "transit_time_minutes_nearest_tier": 20.0 }, "geometry": { "type": "Point", "coordinates": [ 144.99297248, -37.77784668 ] } },
{ "type": "Feature", "properties": { "STOP_NAME": "Merri Station", "STOP_ID": "15389", "MODE": "METRO TRAIN", "transit_time_minutes": 21.4, "transit_distance_km": 8.59, "transit_time_minutes_nearest_tier": 20.0 }, "geometry": { "type": "Point", "coordinates": [ 144.993026789999988, -37.77793772 ] } },
{ "type": "Feature", "properties": { "STOP_NAME": "Middle Brighton Railway Station", "STOP_ID": "vic:rail:MBN", "MODE": "METRO TRAIN", "transit_time_minutes": 37.2, "transit_distance_km": 15.22, "transit_time_minutes_nearest_tier": 35.0 }, "geometry": { "type": "Point", "coordinates": [ 144.99629909, -37.91513441 ] } },
{ "type": "Feature", "properties": { "STOP_NAME": "Middle Brighton Station", "STOP_ID": "14277", "MODE": "METRO TRAIN", "transit_time_minutes": 35.0, "transit_distance_km": 15.07, "transit_time_minutes_nearest_tier": 35.0 }, "geometry": { "type": "Point", "coordinates": [ 144.99666206, -37.91475309 ] } },
{ "type": "Feature", "properties": { "STOP_NAME": "Middle Footscray Railway Station", "STOP_ID": "vic:rail:MFY", "MODE": "METRO TRAIN", "transit_time_minutes": 28.4, "transit_distance_km": 7.31, "transit_time_minutes_nearest_tier": 30.0 }, "geometry": { "type": "Point", "coordinates": [ 144.89147208, -37.8025047 ] } },
{ "type": "Feature", "properties": { "STOP_NAME": "Middle Footscray Station", "STOP_ID": "15516", "MODE": "METRO TRAIN", "transit_time_minutes": 28.4, "transit_distance_km": 7.31, "transit_time_minutes_nearest_tier": 30.0 }, "geometry": { "type": "Point", "coordinates": [ 144.89103013, -37.80246975 ] } },
{ "type": "Feature", "properties": { "STOP_NAME": "Middle Gorge Railway Station", "STOP_ID": "vic:rail:MMR", "MODE": "METRO TRAIN", "transit_time_minutes": 56.9, "transit_distance_km": 29.12, "transit_time_minutes_nearest_tier": 55.0 }, "geometry": { "type": "Point", "coordinates": [ 145.09212201, -37.64403391 ] } },
{ "type": "Feature", "properties": { "STOP_NAME": "Middle Gorge Station", "STOP_ID": "26519", "MODE": "METRO TRAIN", "transit_time_minutes": 53.4, "transit_distance_km": 28.89, "transit_time_minutes_nearest_tier": 55.0 }, "geometry": { "type": "Point", "coordinates": [ 145.09246787, -37.64380519 ] } },
{ "type": "Feature", "properties": { "STOP_NAME": "Mitcham Railway Station", "STOP_ID": "vic:rail:MCH", "MODE": "METRO TRAIN", "transit_time_minutes": 37.4, "transit_distance_km": 24.21, "transit_time_minutes_nearest_tier": 35.0 }, "geometry": { "type": "Point", "coordinates": [ 145.192208240000014, -37.81816668 ] } },
{ "type": "Feature", "properties": { "STOP_NAME": "Mitcham Station", "STOP_ID": "12231", "MODE": "METRO TRAIN", "transit_time_minutes": 35.4, "transit_distance_km": 24.16, "transit_time_minutes_nearest_tier": 35.0 }, "geometry": { "type": "Point", "coordinates": [ 145.19271077, -37.81805724 ] } },
{ "type": "Feature", "properties": { "STOP_NAME": "Montmorency Railway Station", "STOP_ID": "vic:rail:MMY", "MODE": "METRO TRAIN", "transit_time_minutes": 83.8, "transit_distance_km": 32.53, "transit_time_minutes_nearest_tier": 85.0 }, "geometry": { "type": "Point", "coordinates": [ 145.12151574, -37.71529624 ] } },
{ "type": "Feature", "properties": { "STOP_NAME": "Montmorency Station", "STOP_ID": "15331", "MODE": "METRO TRAIN", "transit_time_minutes": 85.7, "transit_distance_km": 32.81, "transit_time_minutes_nearest_tier": 85.0 }, "geometry": { "type": "Point", "coordinates": [ 145.121322959999986, -37.71529317 ] } },
{ "type": "Feature", "properties": { "STOP_NAME": "Moonee Ponds Railway Station", "STOP_ID": "vic:rail:MPD", "MODE": "METRO TRAIN", "transit_time_minutes": 20.1, "transit_distance_km": 7.21, "transit_time_minutes_nearest_tier": 20.0 }, "geometry": { "type": "Point", "coordinates": [ 144.9191607, -37.76570666 ] } },
{ "type": "Feature", "properties": { "STOP_NAME": "Moonee Ponds Station", "STOP_ID": "15546", "MODE": "METRO TRAIN", "transit_time_minutes": 20.1, "transit_distance_km": 7.21, "transit_time_minutes_nearest_tier": 20.0 }, "geometry": { "type": "Point", "coordinates": [ 144.91922928, -37.76568985 ] } },
{ "type": "Feature", "properties": { "STOP_NAME": "Moorabbin Railway Station", "STOP_ID": "vic:rail:MRN", "MODE": "METRO TRAIN", "transit_time_minutes": 40.0, "transit_distance_km": 18.95, "transit_time_minutes_nearest_tier": 40.0 }, "geometry": { "type": "Point", "coordinates": [ 145.036738289999988, -37.93435329 ] } },
{ "type": "Feature", "properties": { "STOP_NAME": "Moorabbin Station", "STOP_ID": "14233", "MODE": "METRO TRAIN", "transit_time_minutes": 40.0, "transit_distance_km": 18.95, "transit_time_minutes_nearest_tier": 40.0 }, "geometry": { "type": "Point", "coordinates": [ 145.03662706, -37.93468486 ] } },
{ "type": "Feature", "properties": { "STOP_NAME": "Mooroolbark Railway Station", "STOP_ID": "vic:rail:MLK", "MODE": "METRO TRAIN", "transit_time_minutes": 51.2, "transit_distance_km": 36.28, "transit_time_minutes_nearest_tier": 50.0 }, "geometry": { "type": "Point", "coordinates": [ 145.3124024, -37.78474883 ] } },
{ "type": "Feature", "properties": { "STOP_NAME": "Mooroolbark Station", "STOP_ID": "12166", "MODE": "METRO TRAIN", "transit_time_minutes": 49.4, "transit_distance_km": 36.15, "transit_time_minutes_nearest_tier": 50.0 }, "geometry": { "type": "Point", "coordinates": [ 145.31368659, -37.78470413 ] } },
{ "type": "Feature", "properties": { "STOP_NAME": "Mordialloc Railway Station", "STOP_ID": "vic:rail:MOR", "MODE": "METRO TRAIN", "transit_time_minutes": 45.9, "transit_distance_km": 28.27, "transit_time_minutes_nearest_tier": 45.0 }, "geometry": { "type": "Point", "coordinates": [ 145.08765936, -38.00658295 ] } },
{ "type": "Feature", "properties": { "STOP_NAME": "Mordialloc Station", "STOP_ID": "11236", "MODE": "METRO TRAIN", "transit_time_minutes": 44.0, "transit_distance_km": 28.22, "transit_time_minutes_nearest_tier": 45.0 }, "geometry": { "type": "Point", "coordinates": [ 145.08734715, -38.00632554 ] } },
{ "type": "Feature", "properties": { "STOP_NAME": "Moreland Railway Station", "STOP_ID": "vic:rail:MLD", "MODE": "METRO TRAIN", "transit_time_minutes": 32.4, "transit_distance_km": 13.64, "transit_time_minutes_nearest_tier": 30.0 }, "geometry": { "type": "Point", "coordinates": [ 144.96182303, -37.75448484 ] } },
{ "type": "Feature", "properties": { "STOP_NAME": "Moreland Station", "STOP_ID": "14310", "MODE": "METRO TRAIN", "transit_time_minutes": 30.2, "transit_distance_km": 13.59, "transit_time_minutes_nearest_tier": 30.0 }, "geometry": { "type": "Point", "coordinates": [ 144.96193577, -37.75409928 ] } },
{ "type": "Feature", "properties": { "STOP_NAME": "Morradoo Railway Station", "STOP_ID": "vic:rail:MRO", "MODE": "METRO TRAIN", "transit_time_minutes": 119.4, "transit_distance_km": 71.67, "transit_time_minutes_nearest_tier": 120.0 }, "geometry": { "type": "Point", "coordinates": [ 145.18960249, -38.35403334 ] } },
{ "type": "Feature", "properties": { "STOP_NAME": "Morradoo Station", "STOP_ID": "2155", "MODE": "METRO TRAIN", "transit_time_minutes": 118.0, "transit_distance_km": 71.57, "transit_time_minutes_nearest_tier": 120.0 }, "geometry": { "type": "Point", "coordinates": [ 145.18948092, -38.35386024 ] } },
{ "type": "Feature", "properties": { "STOP_NAME": "Mount Waverley Railway Station", "STOP_ID": "vic:rail:MWY", "MODE": "METRO TRAIN", "transit_time_minutes": 41.4, "transit_distance_km": 20.77, "transit_time_minutes_nearest_tier": 40.0 }, "geometry": { "type": "Point", "coordinates": [ 145.128044100000011, -37.87526408 ] } },
{ "type": "Feature", "properties": { "STOP_NAME": "Mount Waverley Station", "STOP_ID": "12162", "MODE": "METRO TRAIN", "transit_time_minutes": 41.4, "transit_distance_km": 20.77, "transit_time_minutes_nearest_tier": 40.0 }, "geometry": { "type": "Point", "coordinates": [ 145.128099099999986, -37.87533705 ] } },
{ "type": "Feature", "properties": { "STOP_NAME": "Muir St", "STOP_ID": "vic:rail:WRM_EN1", "MODE": "METRO TRAIN", "transit_time_minutes": 10.7, "transit_distance_km": 4.23, "transit_time_minutes_nearest_tier": 10.0 }, "geometry": { "type": "Point", "coordinates": [ 144.99160299, -37.81500611 ] } },
{ "type": "Feature", "properties": { "STOP_NAME": "Murray Rd", "STOP_ID": "vic:rail:PRE_EN1", "MODE": "METRO TRAIN", "transit_time_minutes": 31.4, "transit_distance_km": 13.05, "transit_time_minutes_nearest_tier": 30.0 }, "geometry": { "type": "Point", "coordinates": [ 145.00058209, -37.73854909 ] } },
{ "type": "Feature", "properties": { "STOP_NAME": "Murrumbeena Railway Station", "STOP_ID": "vic:rail:MRB", "MODE": "METRO TRAIN", "transit_time_minutes": 52.1, "transit_distance_km": 15.8, "transit_time_minutes_nearest_tier": 50.0 }, "geometry": { "type": "Point", "coordinates": [ 145.06737487, -37.89019832 ] } },
{ "type": "Feature", "properties": { "STOP_NAME": "Murrumbeena Station", "STOP_ID": "13727", "MODE": "METRO TRAIN", "transit_time_minutes": 52.4, "transit_distance_km": 15.81, "transit_time_minutes_nearest_tier": 50.0 }, "geometry": { "type": "Point", "coordinates": [ 145.06748618, -37.89029026 ] } },
{ "type": "Feature", "properties": { "STOP_NAME": "Narre Warren Railway Station", "STOP_ID": "vic:rail:NWA", "MODE": "METRO TRAIN", "transit_time_minutes": 104.0, "transit_distance_km": 44.66, "transit_time_minutes_nearest_tier": 105.0 }, "geometry": { "type": "Point", "coordinates": [ 145.303993, -38.02777361 ] } },
{ "type": "Feature", "properties": { "STOP_NAME": "Narre Warren Station", "STOP_ID": "12180", "MODE": "METRO TRAIN", "transit_time_minutes": 88.5, "transit_distance_km": 87.99, "transit_time_minutes_nearest_tier": 90.0 }, "geometry": { "type": "Point", "coordinates": [ 145.303870210000014, -38.02766369 ] } },
{ "type": "Feature", "properties": { "STOP_NAME": "Newmarket Railway Station", "STOP_ID": "vic:rail:NKT", "MODE": "METRO TRAIN", "transit_time_minutes": 22.2, "transit_distance_km": 9.06, "transit_time_minutes_nearest_tier": 20.0 }, "geometry": { "type": "Point", "coordinates": [ 144.92897847, -37.78732767 ] } },
{ "type": "Feature", "properties": { "STOP_NAME": "Newmarket Station", "STOP_ID": "15550", "MODE": "METRO TRAIN", "transit_time_minutes": 22.2, "transit_distance_km": 9.06, "transit_time_minutes_nearest_tier": 20.0 }, "geometry": { "type": "Point", "coordinates": [ 144.92906725, -37.78740133 ] } },
{ "type": "Feature", "properties": { "STOP_NAME": "Newport Railway Station", "STOP_ID": "vic:rail:NPT", "MODE": "METRO TRAIN", "transit_time_minutes": 20.8, "transit_distance_km": 10.91, "transit_time_minutes_nearest_tier": 20.0 }, "geometry": { "type": "Point", "coordinates": [ 144.883588300000014, -37.84272637 ] } },
{ "type": "Feature", "properties": { "STOP_NAME": "Newport Station", "STOP_ID": "15343", "MODE": "METRO TRAIN", "transit_time_minutes": 19.6, "transit_distance_km": 10.82, "transit_time_minutes_nearest_tier": 20.0 }, "geometry": { "type": "Point", "coordinates": [ 144.88352816, -37.84284244 ] } },
{ "type": "Feature", "properties": { "STOP_NAME": "Noble Park Railway Station", "STOP_ID": "vic:rail:NPK", "MODE": "METRO TRAIN", "transit_time_minutes": 96.2, "transit_distance_km": 31.3, "transit_time_minutes_nearest_tier": 95.0 }, "geometry": { "type": "Point", "coordinates": [ 145.17632482, -37.96661867 ] } },
{ "type": "Feature", "properties": { "STOP_NAME": "Noble Park Station", "STOP_ID": "12192", "MODE": "METRO TRAIN", "transit_time_minutes": 93.0, "transit_distance_km": 31.15, "transit_time_minutes_nearest_tier": 95.0 }, "geometry": { "type": "Point", "coordinates": [ 145.17577684, -37.96622266 ] } },
{ "type": "Feature", "properties": { "STOP_NAME": "North Brighton Railway Station", "STOP_ID": "vic:rail:NBN", "MODE": "METRO TRAIN", "transit_time_minutes": 32.4, "transit_distance_km": 15.0, "transit_time_minutes_nearest_tier": 30.0 }, "geometry": { "type": "Point", "coordinates": [ 145.002605030000012, -37.90488721 ] } },
{ "type": "Feature", "properties": { "STOP_NAME": "North Brighton Station", "STOP_ID": "14279", "MODE": "METRO TRAIN", "transit_time_minutes": 32.4, "transit_distance_km": 15.0, "transit_time_minutes_nearest_tier": 30.0 }, "geometry": { "type": "Point", "coordinates": [ 145.002590090000012, -37.90459859 ] } },
{ "type": "Feature", "properties": { "STOP_NAME": "North Richmond Railway Station", "STOP_ID": "vic:rail:NRM", "MODE": "METRO TRAIN", "transit_time_minutes": 11.4, "transit_distance_km": 4.71, "transit_time_minutes_nearest_tier": 10.0 }, "geometry": { "type": "Point", "coordinates": [ 144.992500260000014, -37.81039836 ] } },
{ "type": "Feature", "properties": { "STOP_NAME": "North Richmond Station", "STOP_ID": "14336", "MODE": "METRO TRAIN", "transit_time_minutes": 11.4, "transit_distance_km": 4.71, "transit_time_minutes_nearest_tier": 10.0 }, "geometry": { "type": "Point", "coordinates": [ 144.99255459, -37.8104894 ] } },
{ "type": "Feature", "properties": { "STOP_NAME": "North Williamstown Railway Station", "STOP_ID": "vic:rail:NWN", "MODE": "METRO TRAIN", "transit_time_minutes": 24.6, "transit_distance_km": 12.56, "transit_time_minutes_nearest_tier": 25.0 }, "geometry": { "type": "Point", "coordinates": [ 144.88906947000001, -37.85733348 ] } },
{ "type": "Feature", "properties": { "STOP_NAME": "North Williamstown Station", "STOP_ID": "15341", "MODE": "METRO TRAIN", "transit_time_minutes": 22.1, "transit_distance_km": 12.47, "transit_time_minutes_nearest_tier": 20.0 }, "geometry": { "type": "Point", "coordinates": [ 144.88890497, -37.85712326 ] } },